     3.02           OBSERVATION DATA    M: Mixed            RINEX VERSION / TYPE
RTKCONV 2.4.2                           20191009 090927 UTC PGM / RUN BY / DATE 
log: C:\Users\Shimpei\Documents\signal_classifier\data\191  COMMENT             
format: u-blox                                              COMMENT             
                                                            MARKER NAME         
                                                            MARKER NUMBER       
                                                            MARKER TYPE         
                                                            OBSERVER / AGENCY   
                                                            REC # / TYPE / VERS 
                                                            ANT # / TYPE        
 -3751249.5132  3686080.2763  3596592.7926                  APPROX POSITION XYZ 
        0.0000        0.0000        0.0000                  ANTENNA: DELTA H/E/N
G    4 C1C L1C D1C S1C                                      SYS / # / OBS TYPES 
R    4 C1C L1C D1C S1C                                      SYS / # / OBS TYPES 
J    4 C1C L1C D1C S1C                                      SYS / # / OBS TYPES 
  2019    10     9     7    17   58.9970000     GPS         TIME OF FIRST OBS   
  2019    10     9     7    48   26.9980000     GPS         TIME OF LAST OBS    
G                                                           SYS / PHASE SHIFT   
R                                                           SYS / PHASE SHIFT   
J                                                           SYS / PHASE SHIFT   
  0                                                         GLONASS SLOT / FRQ #
 C1C    0.000 C1P    0.000 C2C    0.000 C2P    0.000        GLONASS COD/PHS/BIS 
                                                            END OF HEADER       
> 2019 10  9  7 17 58.9970000  0 15                     
G 5  21633418.715   113684211.307       -3063.601          33.000  
G13  20916995.942   109919550.484       -2585.838          47.000  
G15  19573387.704   102858837.440        -777.664          41.000  
G24  20017784.023   105194174.941        1829.242          41.000  
G28  23715129.858   124623868.858        -824.193          39.000  
R 5  20526694.765   109726900.791       -2072.854          43.000  
R15  20495825.968   109523402.841       -2841.174          36.000  
J 2  36096654.502   189689196.950        -418.870          38.000  
R16  18978795.523   101381252.646        1261.842          37.000  
G20  22185724.720   116586774.9052       2695.537          26.000  
R 6  19361588.082                         718.919          25.000  
R 7  22312247.899   119439230.450        2157.529          25.000  
R 9  22411415.051   119675539.924        3925.188          41.000  
R21  21394009.170   114483628.1732      -3349.795          28.000  
R22  21959139.423                          -5.636          25.000  
> 2019 10  9  7 17 59.9970000  0 14                     
G 5  21634001.063   113687274.910       -3064.551          33.000  
G13  20917488.282   109922136.595       -2586.683          47.000  
G15  19573536.083   102859615.374        -778.252          42.000  
G24  20017436.031   105192346.139        1828.259          41.000  
G28  23715286.736   124624693.646        -825.057          39.000  
R 5  20527082.159   109728973.884       -2073.671          43.000  
R15  20496357.624   109526244.347       -2841.841          36.000  
J 2  36096733.935   189689615.477        -418.591          37.000  
R16  18978559.247   101379991.208        1260.341          37.000  
G20  22185210.497   116584079.8852       2694.930          25.000  
R 6  19361456.333                         718.681          25.000  
R 7  22311844.328                        2156.968          24.000  
R 9  22410681.008   119671614.948        3924.534          41.000  
R21  21394634.621   114486978.4762      -3351.008          28.000  
> 2019 10  9  7 18  0.9970000  0 14                     
G 5  21634583.621   113690338.800       -3064.174          32.000  
G13  20917980.396   109924722.935       -2586.777          47.000  
G15  19573684.166   102860393.716        -778.910          42.000  
G24  20017088.056   105190517.979        1827.557          42.000  
G28  23715443.910   124625519.077        -825.583          39.000  
R 5  20527469.537   109731047.303       -2073.936          42.000  
R15  20496889.437   109529086.755       -2843.342          36.000  
J 2  36096813.648   189690034.271        -419.121          37.000  
R16  18978323.320   101378730.720        1259.569          37.000  
G20  22184697.198   116581385.166        2694.678          26.000  
R 6  19361324.200                         718.567          25.000  
R 7  22311437.755                        2157.202          23.000  
R 9  22409946.790   119667690.122        3924.743          41.000  
R21  21395262.462   114490329.3632      -3350.959          28.000  
> 2019 10  9  7 18  1.9970000  0 14                     
G 5  21635166.075   113693403.057       -3064.520          32.000  
G13  20918472.614   109927309.382       -2586.905          47.000  
G15  19573832.283   102861172.313        -779.154          41.000  
G24  20016740.500   105188690.305        1827.075          42.000  
G28  23715601.311   124626344.983        -826.178          40.000  
R 5  20527857.385   109733120.927       -2074.257          43.000  
R15  20497421.232   109531929.826       -2843.821          35.000  
J 2  36096893.657   189690453.118        -419.259          37.000  
R16  18978087.253   101377471.067        1258.593          37.000  
G20  22184183.708   116578690.440        2694.164          25.000  
R 6  19361191.700                         719.835          24.000  
R 7  22311033.050                        2156.560          24.000  
R 9  22409212.485   119663765.366        3924.350          41.000  
R21  21395887.040   114493680.7102      -3351.529          28.000  
> 2019 10  9  7 18  2.9970000  0 14                     
G 5  21635748.668   113696467.752       -3064.798          32.000  
G13  20918965.251   109929895.989       -2586.623          47.000  
G15  19573980.505   102861951.215        -778.950          41.000  
G24  20016392.892   105186863.173        1827.173          42.000  
G28  23715759.043   124627171.408        -826.597          40.000  
R 5  20528245.042   109735194.804       -2073.792          42.000  
R15  20497953.377   109534773.681       -2844.477          35.000  
J 2  36096973.177   189690872.042        -418.139          37.000  
R16  18977851.710   101376212.272        1258.133          37.000  
G20  22183675.296   116575995.931        2694.659          26.000  
R 6  19361060.073                         721.861          22.000  
R 7  22310629.548                        2157.132          25.000  
R 9  22408478.040   119659840.713        3924.837          42.000  
R21  21396512.020   114497032.623       -3352.367          28.000  
> 2019 10  9  7 18  3.9970000  0 14                     
G 5  21636330.912   113699532.524       -3064.371          32.000  
G13  20919457.470   109932482.674       -2587.054          47.000  
G15  19574128.344   102862730.357        -779.950          40.000  
G24  20016045.580   105185036.460        1826.489          42.000  
G28  23715916.654   124627998.289        -827.145          41.000  
R 5  20528632.838   109737268.879       -2074.307          42.000  
R15  20498485.853   109537618.185       -2845.403          35.000  
J 2  36097052.925   189691291.085        -419.253          36.000  
R16  18977616.394   101374954.242        1257.664          37.000  
G20  22183160.602   116573301.398        2694.451          25.000  
R 6  19360926.509                         717.081          21.000  
R 7  22310224.930                        2158.142          25.000  
R 9  22407743.456   119655916.043        3924.304          41.000  
R21  21397139.530   114500384.849       -3352.647          28.000  
> 2019 10  9  7 18  4.9970000  0 14                     
G 5  21636912.929   113702597.779       -3066.172          33.000  
G13  20919949.793   109935069.487       -2587.166          47.000  
G15  19574276.775   102863509.734        -779.775          41.000  
G24  20015698.408   105183210.297        1825.671          43.000  
G28  23716074.299   124628825.707        -828.183          41.000  
R 5  20529020.303   109739343.232       -2074.801          42.000  
R15  20499018.119   109540463.420       -2845.570          33.000  
J 2  36097132.585   189691710.151        -419.663          37.000  
R16  18977381.026   101373697.088        1256.818          37.000  
G20  22182644.983   116570607.111        2693.614          25.000  
R 6  19360791.008                         724.693          20.000  
R 7  22309820.486                        2157.123          24.000  
R 9  22407008.435   119651991.450        3924.315          41.000  
R21  21397764.352   114503737.717       -3353.605          27.000  
> 2019 10  9  7 18  5.9970000  0 14                     
G 5  21637494.893   113705663.264       -3065.725          34.000  
G13  20920442.203   109937656.487       -2586.979          47.000  
G15  19574424.875   102864289.515        -780.131          40.000  
G24  20015351.166   105181384.702        1825.214          43.000  
G28  23716232.154   124629653.659        -828.348          41.000  
R 5  20529407.593   109741417.866       -2074.919          41.000  
R15  20499550.299   109543309.532       -2846.750          33.000  
J 2  36097212.228   189692129.386        -419.282          37.000  
R16  18977145.936   101372440.831        1255.788          37.000  
G20  22182129.905   116567912.827        2694.402          26.000  
R 6  19360653.151                         719.043          19.000  
R 7  22309416.217                        2154.061          23.000  
R 9  22406273.397   119648066.931        3924.563          41.000  
R21  21398392.281   114507091.060       -3353.971          27.000  
> 2019 10  9  7 18  6.9970000  0 14                     
G 5  21638077.260   113708729.122       -3066.456          33.000  
G13  20920934.962   109940243.716       -2587.248          47.000  
G15  19574572.835   102865069.644        -780.460          40.000  
G24  20015004.238   105179559.727        1824.615          43.000  
G28  23716389.938   124630482.216        -828.826          41.000  
R 5  20529794.970   109743492.826       -2075.243          41.000  
R15  20500082.722   109546156.370       -2846.656          33.000  
J 2  36097291.888   189692548.792        -419.333          36.000  
R16  18976911.109   101371185.513        1255.121          37.000  
G20  22181618.247   116565218.861        2694.000          26.000  
R 6  19360514.509                         713.619          19.000  
R 7  22309011.425                        2159.948          22.000  
R 9  22405538.498   119644142.576        3924.619          41.000  
R21  21399019.477   114510444.973       -3353.815          27.000  
> 2019 10  9  7 18  7.9970000  0 14                     
G 5  21638659.102   113711794.752       -3065.031          34.000  
G13  20921426.988   109942830.501       -2586.223          47.000  
G15  19574721.040   102865849.486        -779.770          39.000  
G24  20014657.415   105177734.696        1825.500          43.000  
G28  23716547.514   124631310.713        -828.077          41.000  
R 5  20530182.540   109745567.392       -2073.897          41.000  
R15  20500615.146   109549003.412       -2846.745          33.000  
J 2  36097371.025   189692967.681        -418.179          36.000  
R16  18976676.543   101369930.425        1255.538          37.000  
G20  22181105.856   116562524.442        2694.348          26.000  
R 6  19360376.705                         725.069          21.000  
R 7  22308605.951                        2168.333          22.000  
R 9  22404803.478   119640217.684        3925.268          41.000  
R21  21399648.417   114513798.844       -3354.107          26.000  
> 2019 10  9  7 18  8.9970000  0 14                     
G 5  21639241.643   113714860.750       -3066.446          34.000  
G13  20921919.224   109945417.537       -2587.618          47.000  
G15  19574869.175   102866629.699        -780.911          40.000  
G24  20014310.435   105175910.297        1823.499          43.000  
G28  23716705.351   124632139.844        -829.935          41.000  
R 5  20530570.039   109747642.398       -2075.768          41.000  
R15  20501148.093   109551851.307       -2848.849          34.000  
J 2  36097450.546   189693386.850        -419.268          36.000  
R16  18976441.960   101368676.332        1253.084          37.000  
G20  22180594.425   116559830.283        2693.121          26.000  
R 6  19360241.553                         721.330          23.000  
R 7  22308199.047                        2157.032          22.000  
R 9  22404067.969   119636292.993        3924.014          41.000  
R21  21400276.137   114517153.298       -3355.545          26.000  
> 2019 10  9  7 18  9.9970000  0 14                     
G 5  21639824.515   113717927.858       -3066.473          34.000  
G13  20922411.495   109948005.450       -2588.094          47.000  
G15  19575017.607   102867410.974        -781.532          40.000  
G24  20013963.455   105174087.179        1822.791          42.000  
G28  23716863.485   124632970.206        -830.503          41.000  
R 5  20530957.818   109749718.363       -2076.165          41.000  
R15  20501680.830   109554700.630       -2849.470          33.000  
J 2  36097530.311   189693806.830        -419.915          36.000  
R16  18976207.673   101367423.789        1251.723          37.000  
G20  22180084.268   116557136.825        2693.271          26.000  
R 6  19360106.419                         718.119          25.000  
R 7  22307794.220                        2162.203          23.000  
R 9  22403332.634   119632369.109        3923.797          40.000  
R21  21400905.531   114520508.868       -3355.762          27.000  
> 2019 10  9  7 18 10.9970000  0 14                     
G 5  21640407.282   113720995.475       -3067.365          34.000  
G13  20922903.783   109950593.677       -2588.256          47.000  
G15  19575166.492   102868192.725        -781.737          40.000  
G24  20013616.579   105172264.764        1822.205          42.000  
G28  23717021.601   124633801.303        -831.406          41.000  
R 5  20531345.405   109751794.768       -2076.521          41.000  
R15  20502214.074   109557550.972       -2850.587          33.000  
J 2  36097610.076   189694227.095        -420.229          37.000  
R16  18975973.491   101366172.296        1250.863          37.000  
G20  22179571.005   116554443.805        2692.995          26.000  
R 6  19359973.361                         716.439          26.000  
R 7  22307386.897                        2164.536          25.000  
R 9  22402597.491   119628445.511        3923.809          40.000  
R21  21401534.245   114523865.236       -3356.769          27.000  
> 2019 10  9  7 18 11.9970000  0 14                     
G 5  21640990.696   113724063.436       -3067.775          33.000  
G13  20923396.054   109953182.079       -2588.408          46.000  
G15  19575314.958   102868974.755        -782.197          40.000  
G24  20013269.721   105170442.894        1821.643          42.000  
G28  23717179.857   124634632.945        -831.969          41.000  
R 5  20531733.428   109753871.440       -2076.763          41.000  
R15  20502747.178   109560402.063       -2852.093          33.000  
J 2  36097689.753   189694647.500        -420.636          36.000  
R16  18975739.449   101364921.670        1250.313          37.000  
G20  22179058.265   116551750.896        2692.607          25.000  
R 6  19359840.408   103307735.5322        715.711          27.000  
R 7  22306982.156                        2158.537          25.000  
R 9  22401861.999   119624521.949        3923.816          40.000  
R21  21402160.621   114527222.109       -3357.681          27.000  
> 2019 10  9  7 18 12.9970000  0 14                     
G 5  21641574.109   113727131.640       -3068.386          35.000  
G13  20923888.778   109955770.531       -2588.420          46.000  
G15  19575463.878   102869757.012        -782.486          40.000  
G24  20012923.090   105168621.481        1821.051          42.000  
G28  23717338.096   124635465.005        -832.592          41.000  
R 5  20532121.782   109755948.260       -2076.850          41.000  
R15  20503280.544   109563253.762       -2851.489          33.000  
J 2  36097769.309   189695067.883        -420.411          35.000  
R16  18975505.389   101363671.852        1249.152          37.000  
G20  22178548.736   116549058.116        2692.989          26.000  
R 6  19359706.896   103307019.376         716.007          27.000  
R 7  22306577.311                        2158.697          25.000  
R 9  22401126.560   119620598.443        3923.320          40.000  
R21  21402787.799   114530579.398       -3357.828          26.000  
> 2019 10  9  7 18 13.9970000  0 14                     
G 5  21642157.120   113730200.202       -3068.829          35.000  
G13  20924381.083   109958359.238       -2589.012          46.000  
G15  19575613.060   102870539.672        -783.005          41.000  
G24  20012576.581   105166800.687        1820.282          42.000  
G28  23717496.509   124636297.694        -833.296          41.000  
R 5  20532509.805   109758025.455       -2077.676          42.000  
R15  20503814.172   109566106.371       -2852.790          32.000  
J 2  36097849.318   189695488.468        -420.512          35.000  
R16  18975271.539   101362422.981        1247.873          37.000  
G20  22178037.899   116546365.463        2692.341          26.000  
R 6  19359572.198   103306303.424         715.757          27.000  
R 7  22306172.239                        2157.705          26.000  
R 9  22400390.771   119616675.063        3923.260          40.000  
R21  21403414.401   114533937.329       -3358.824          25.000  
> 2019 10  9  7 18 14.9970000  0 14                     
G 5  21642740.481   113733268.989       -3068.374          36.000  
G13  20924873.598   109960947.967       -2588.720          46.000  
G15  19575762.382   102871322.509        -782.713          41.000  
G24  20012229.689   105164980.304        1820.233          42.000  
G28  23717654.852   124637130.785        -833.143          41.000  
R 5  20532898.718   109760102.772       -2077.346          42.000  
R15  20504347.468   109568959.573       -2853.208          32.000  
J 2  36097928.926   189695909.049        -419.855          35.000  
R16  18975038.037   101361174.847        1247.830          36.000  
G20  22177528.387   116543672.850        2692.720          26.000  
R 6  19359436.557   103305587.650         716.063          27.000  
R 7  22305768.912                        2159.520          25.000  
R 9  22399654.791   119612751.714        3923.263          39.000  
R21  21404040.288                       -3358.920          24.000  
> 2019 10  9  7 18 15.9970000  0 14                     
G 5  21643324.086   113736338.063       -3069.518          36.000  
G13  20925366.026   109963536.812       -2589.001          46.000  
G15  19575912.244   102872105.611        -783.260          42.000  
G24  20011883.232   105163160.433        1819.604          42.000  
G28  23717813.108   124637964.358        -833.772          41.000  
R 5  20533287.911   109762180.315       -2077.522          43.000  
R15  20504881.305   109571813.505       -2854.731          32.000  
J 2  36098008.813   189696329.733        -420.766          35.000  
R16  18974804.623   101359927.530        1246.972          36.000  
G20  22177020.150   116540980.362        2692.542          27.000  
R 6  19359301.091   103304872.022         715.823          26.000  
R 7  22305364.364                        2158.408          25.000  
R 9  22398918.880   119608828.331        3923.435          39.000  
R21  21404667.938                       -3358.214          23.000  
> 2019 10  9  7 18 16.9970000  0 13                     
G 5  21643907.831   113739407.469       -3069.636          36.000  
G13  20925858.733   109966125.819       -2588.918          46.000  
G15  19576061.653   102872889.035        -783.572          42.000  
G24  20011536.636   105161341.115        1819.147          42.000  
G28  23717971.609   124638798.500        -834.636          41.000  
R 5  20533676.998   109764258.135       -2077.655          43.000  
R15  20505405.702   109574668.159       -2855.302          31.000  
J 2  36098088.805   189696750.556        -420.885          35.000  
R16  18974571.087   101358681.084        1246.046          36.000  
G20  22176509.347   116538288.010        2692.521          27.000  
R 6  19359166.498   103304156.698         715.021          26.000  
R 7  22304960.932                        2157.779          25.000  
R 9  22398182.795   119604905.066        3923.717          39.000  
> 2019 10  9  7 18 17.9970000  0 13                     
G 5  21644491.366   113742476.683       -3069.041          35.000  
G13  20926351.527   109968714.451       -2587.983          46.000  
G15  19576210.940   102873672.224        -782.763          42.000  
G24  20011190.144   105159521.803        1819.543          42.000  
G28  23718130.336   124639632.629        -833.992          41.000  
R 5  20534065.946   109766335.661       -2077.014          43.000  
R15  20505939.574   109577523.054       -2855.492          31.000  
J 2  36098168.797   189697170.922        -420.018          35.000  
R16  18974337.533   101357434.973        1245.771          36.000  
G20  22175997.724   116535595.266        2693.708          26.000  
R 6  19359028.641   103303440.929         716.746          26.000  
R 7  22304555.546                        2158.863          24.000  
R 9  22397446.955   119600981.357        3924.052          39.000  
> 2019 10  9  7 18 18.9970000  0 13                     
G 5  21645075.512   113745546.054       -3069.580          35.000  
G13  20926843.833   109971303.132       -2588.946          46.000  
G15  19576360.663   102874455.622        -783.771          42.000  
G24  20010843.862   105157702.931        1818.329          42.000  
G28  23718289.046   124640467.168        -835.071          41.000  
R 5  20534454.650   109768413.327       -2078.090          43.000  
R15  20506469.432   109580378.619       -2856.421          32.000  
J 2  36098248.631   189697591.292        -420.218          35.000  
R16  18974103.927   101356189.605        1244.319          36.000  
G20  22175486.869   116532902.581        2691.977          26.000  
R 6  19358890.034   103302725.4262        714.685          26.000  
R 7  22304149.323                        2156.799          24.000  
R 9  22396711.410   119597057.608        3923.650          39.000  
> 2019 10  9  7 18 19.9970000  0 13                     
G 5  21645659.501   113748616.493       -3070.959          35.000  
G13  20927336.731   109973892.644       -2589.978          46.000  
G15  19576510.211   102875239.979        -784.570          42.000  
G24  20010497.999   105155885.268        1817.273          42.000  
G28  23718448.122   124641302.922        -836.223          41.000  
R 5  20534843.493   109770491.948       -2078.805          43.000  
R15  20507005.468   109583235.623       -2857.364          31.000  
J 2  36098328.745   189698012.472        -421.840          35.000  
R16  18973870.705   101354945.794        1243.599          35.000  
G20  22174978.596   116530210.637        2691.957          26.000  
R 6  19358756.121   103302010.6572        714.279          26.000  
R 7  22303745.961                        2158.837          24.000  
R 9  22395975.727   119593134.640        3922.671          39.000  
> 2019 10  9  7 18 20.9970000  0 13                     
G 5  21646243.560   113751687.323       -3071.084          35.000  
G13  20927829.822   109976482.385       -2589.741          46.000  
G15  19576659.707   102876024.743        -784.875          42.000  
G24  20010152.066   105154068.228        1816.717          42.000  
G28  23718607.303   124642139.305        -836.781          41.000  
R 5  20535232.458   109772570.948       -2078.917          43.000  
R15  20507533.494   109586093.464       -2858.109          30.000  
J 2  36098408.859   189698433.858        -421.653          35.000  
R16  18973637.378   101353702.997        1242.350          35.000  
G20  22174470.603   116527518.952        2691.945          27.000  
R 6  19358621.981   103301296.197         714.410          27.000  
R 7  22303341.290                        2158.013          25.000  
R 9  22395240.270   119589211.814        3922.902          39.000  
> 2019 10  9  7 18 21.9970000  0 13                     
G 5  21646827.758   113754758.608       -3071.798          35.000  
G13  20928322.564   109979072.388       -2589.796          46.000  
G15  19576809.639   102876809.917        -785.050          42.000  
G24  20009806.342   105152251.797        1816.345          42.000  
G28  23718766.030   124642976.298        -837.027          41.000  
R 5  20535621.511   109774650.301       -2079.180          43.000  
R15  20508065.900   109588952.171       -2859.232          30.000  
J 2  36098488.380   189698855.376        -420.828          35.000  
R16  18973404.697   101352461.132        1241.739          35.000  
G20  22173961.685   116524827.561        2691.240          26.000  
R 6  19358486.096   103300582.205         713.257          27.000  
R 7  22302937.405                        2158.098          25.000  
R 9  22394505.092   119585289.195        3922.522          39.000  
> 2019 10  9  7 18 22.9970000  0 13                     
G 5  21647412.079   113757830.252       -3072.229          35.000  
G13  20928815.393   109981662.564       -2590.247          46.000  
G15  19576959.502   102877595.422        -785.780          42.000  
G24  20009460.705   105150435.947        1815.570          42.000  
G28  23718925.228   124643813.862        -837.727          41.000  
R 5  20536010.511   109776729.943       -2079.907          43.000  
R15  20508592.059   109591811.634       -2859.678          29.000  
J 2  36098568.494   189699277.134        -422.092          35.000  
R16  18973172.103   101351220.144        1240.723          35.000  
G20  22173453.325   116522136.271        2691.402          27.000  
R 6  19358350.613   103299868.296         713.725          27.000  
R 7  22302535.579                        2158.459          25.000  
R 9  22393769.775   119581366.670        3922.739          39.000  
> 2019 10  9  7 18 23.9970000  0 13                     
G 5  21647996.382   113760902.050       -3072.303          35.000  
G13  20929308.083   109984252.770       -2590.088          46.000  
G15  19577108.719   102878381.107        -785.686          42.000  
G24  20009115.296   105148620.548        1815.308          42.000  
G28  23719083.816   124644651.838        -837.801          40.000  
R 5  20536399.686   109778809.703       -2079.698          43.000  
R15  20509128.147   109594671.779       -2860.653          29.000  
J 2  36098648.695   189699698.836        -421.755          35.000  
R16  18972939.701   101349979.899        1239.865          35.000  
G20  22172941.196   116519445.013        2691.034          26.000  
R 6  19358216.612   103299154.506         713.746          27.000  
R 7  22302129.094                        2159.781          25.000  
R 9  22393034.702   119577444.099        3923.067          39.000  
> 2019 10  9  7 18 24.9970000  0 14                     
G 5  21648581.156   113763974.107       -3072.612          36.000  
G13  20929800.894   109986843.044       -2590.389          46.000  
G15  19577258.337   102879166.999        -785.987          42.000  
G24  20008770.113   105146805.575        1814.691          42.000  
G28  23719242.368   124645490.231        -838.482          40.000  
R 5  20536788.686   109780889.612       -2079.753          43.000  
R15  20509657.325   109597532.475       -2860.685          27.000  
J 2  36098728.879   189700120.541        -421.164          35.000  
R16  18972707.246   101348740.386        1239.462          35.000  
G20  22172434.756   116516753.837        2691.176          27.000  
R22  21959125.289                         -32.386          25.000  
R 6  19358083.031   103298440.825         713.880          27.000  
R 7  22301723.760                        2158.270          24.000  
R 9  22392299.681   119573521.534        3922.015          39.000  
> 2019 10  9  7 18 25.9970000  0 15                     
G 5  21649165.617   113767046.433       -3072.425          36.000  
G13  20930294.055   109989433.444       -2590.446          47.000  
G15  19577407.990   102879953.194        -786.237          41.000  
G24  20008424.965   105144991.130        1814.313          42.000  
G28  23719401.829   124646329.166        -838.890          40.000  
R 5  20537177.808   109782969.817       -2080.046          43.000  
R15  20510190.516   109600394.032       -2862.205          26.000  
J 2  36098808.609   189700542.380        -421.950          34.000  
R16  18972475.176   101347501.804        1238.058          35.000  
G20  22171925.053   116514062.759        2691.079          27.000  
R22  21959130.018                         -28.841          26.000  
R 6  19357949.223   103297727.427         713.777          27.000  
R 7  22301318.444                        2159.250          23.000  
R 9  22391564.696   119569599.035        3922.513          39.000  
J 3  36879603.542   193803623.6581       -836.341          35.000  
> 2019 10  9  7 18 26.9970000  0 15                     
G 5  21649749.902   113770119.073       -3072.322          35.000  
G13  20930787.180   109992023.933       -2590.225          47.000  
G15  19577557.294   102880739.613        -786.122          41.000  
G24  20008080.079   105143177.148        1814.032          42.000  
G28  23719561.271   124647168.546        -839.301          40.000  
R 5  20537566.913   109785050.180       -2079.851          43.000  
R15  20510720.584                       -2860.894          26.000  
J 2  36098888.810   189700964.237        -421.708          34.000  
R16  18972243.437   101346263.999        1237.581          35.000  
G20  22171417.164   116511371.723        2691.092          28.000  
R22  21959132.321                         -29.728          25.000  
R 6  19357815.641   103297014.169         712.634          27.000  
R 7  22300912.534                        2157.199          25.000  
R 9  22390829.989   119565676.543        3922.758          40.000  
J 3  36879762.618   193804459.993        -835.779          35.000  
> 2019 10  9  7 18 27.9970000  0 16                     
G 5  21650334.589   113773191.608       -3072.889          36.000  
G13  20931280.149   109994614.142       -2590.137          47.000  
G15  19577706.650   102881525.915        -786.294          41.000  
G24  20007735.001   105141363.266        1814.007          42.000  
G28  23719720.627   124648008.033        -839.502          40.000  
R 5  20537956.455   109787130.376       -2079.930          43.000  
R15  20511253.147   109606118.642       -2862.286          26.000  
J 2  36098969.029   189701385.813        -421.612          34.000  
R16  18972011.594   101345026.545        1238.060          35.000  
G20  22170904.267   116508680.383        2691.846          28.000  
R22  21959140.767                         -31.386          26.000  
R 6  19357682.793   103296300.554         714.070          27.000  
R 7  22300508.003                        2158.812          25.000  
R 9  22390095.213   119561753.711        3923.157          40.000  
R21  21412225.924                       -3364.916          27.000  
J 3  36879921.555   193805295.894        -835.469          35.000  
> 2019 10  9  7 18 28.9970000  0 16                     
G 5  21650919.311   113776264.162       -3073.029          35.000  
G13  20931772.856   109997204.240       -2590.581          47.000  
G15  19577856.042   102882312.256        -786.898          41.000  
G24  20007390.115   105139549.669        1812.854          42.000  
G28  23719880.418   124648847.784        -840.138          40.000  
R 5  20538345.734   109789210.539       -2080.779          43.000  
R15  20511787.176   109608981.578       -2863.212          25.000  
J 2  36099049.247   189701807.209        -421.877          35.000  
R16  18971779.890   101343789.726        1235.914          35.000  
G20  22170390.358   116505988.979        2690.964          28.000  
R22  21959147.730                         -31.226          26.000  
R 6  19357552.108   103295586.983         713.391          27.000  
R 7  22300105.095                        2159.707          26.000  
R 9  22389360.227   119557830.688        3922.562          40.000  
R21  21412842.998                       -3364.434          26.000  
J 3  36880080.823   193806131.484        -835.898          35.000  
> 2019 10  9  7 18 29.9970000  0 16                     
G 5  21651504.190   113779337.724       -3073.651          35.000  
G13  20932265.668   109999795.153       -2591.262          47.000  
G15  19578005.014   102883099.572        -787.831          41.000  
G24  20007045.456   105137737.265        1811.944          42.000  
G28  23720040.384   124649688.744        -841.584          40.000  
R 5  20538735.415   109791291.632       -2081.781          43.000  
R15  20512324.172   109611846.087       -2864.746          26.000  
J 2  36099129.710   189702229.417        -423.134          35.000  
R16  18971548.029   101342554.430        1234.630          35.000  
G20  22169875.943   116503298.384        2689.992          28.000  
R22  21959154.867                         -33.069          26.000  
R 6  19357417.200   103294874.352         712.249          26.000  
R 7  22299701.088                        2156.188          26.000  
R 9  22388625.521   119553908.397        3922.087          40.000  
R21  21413463.615   114587787.1343      -3366.764          26.000  
J 3  36880240.056   193806967.716        -836.499          35.000  
> 2019 10  9  7 18 30.9970000  0 16                     
G 5  21652089.296   113782411.985       -3074.367          36.000  
G13  20932758.863   110002386.559       -2591.563          47.000  
G15  19578154.144   102883887.545        -788.210          41.000  
G24  20006700.988   105135925.765        1811.163          42.000  
G28  23720200.577   124650530.574        -841.989          40.000  
R 5  20539124.956   109793373.349       -2082.053          44.000  
R15  20512860.853   109614711.640       -2865.869          26.000  
J 2  36099210.313   189702652.043        -423.064          35.000  
R16  18971316.848   101341320.442        1232.677          36.000  
G20  22169363.256   116500608.208        2689.806          28.000  
R22  21959163.819                         -34.406          26.000  
R 6  19357286.272   103294162.1392        713.097          25.000  
R 7  22299296.155                        2158.000          25.000  
R 9  22387891.006   119549986.574        3921.566          40.000  
R21  21414090.514   114591153.7812      -3367.234          27.000  
J 3  36880399.010   193807804.272        -836.949          35.000  
> 2019 10  9  7 18 31.9970000  0 16                     
G 5  21652674.402   113785486.502       -3074.915          37.000  
G13  20933252.477   110004978.056       -2591.528          47.000  
G15  19578303.430   102884675.738        -788.098          41.000  
G24  20006356.643   105134114.729        1810.718          42.000  
G28  23720360.980   124651372.873        -842.310          40.000  
R 5  20539515.056   109795455.303       -2082.053          44.000  
R15  20513399.681   109617577.874       -2866.436          26.000  
J 2  36099290.776   189703074.725        -422.308          35.000  
R16  18971086.069   101340087.185        1232.823          36.000  
G20  22168849.347   116497918.123        2690.363          28.000  
R22  21959174.044                         -34.902          26.000  
R 6  19357154.592                         712.116          25.000  
R 7  22298891.276                        2159.044          25.000  
R 9  22387156.299   119546064.726        3921.931          40.000  
R21  21414715.825                       -3367.505          26.000  
J 3  36880558.243   193808640.742        -836.122          35.000  
> 2019 10  9  7 18 32.9970000  0 16                     
G 5  21653259.507   113788561.256       -3074.863          37.000  
G13  20933745.533   110007569.618       -2591.487          47.000  
G15  19578452.996   102885464.167        -788.472          41.000  
G24  20006012.350   105132304.153        1810.474          42.000  
G28  23720521.051   124652215.631        -843.005          40.000  
R 5  20539904.841   109797537.427       -2082.207          44.000  
R15  20513939.766   109620444.794       -2867.354          26.000  
J 2  36099371.378   189703497.473        -422.921          35.000  
R16  18970855.098   101338854.721        1232.046          36.000  
G20  22168337.375   116495228.115        2690.390          28.000  
R22  21959182.229                         -35.194          25.000  
R 6  19357020.260                         713.764          25.000  
R 7  22298488.821                        2158.773          25.000  
R 9  22386421.942   119542142.895        3921.607          40.000  
R21  21415340.630                       -3366.253          26.000  
J 3  36880717.564   193809477.107        -836.395          36.000  
> 2019 10  9  7 18 33.9970000  0 15                     
G 5  21653844.875   113791636.300       -3075.195          37.000  
G13  20934238.659   110010161.308       -2591.799          47.000  
G15  19578602.824   102886252.876        -788.999          41.000  
G24  20005668.058   105130494.104        1809.827          42.000  
G28  23720681.488   124653058.871        -843.316          40.000  
R 5  20540294.906   109799619.782       -2082.495          44.000  
R15  20514477.319   109623312.340       -2867.560          26.000  
J 2  36099451.894   189703920.263        -423.024          35.000  
R16  18970624.895   101337623.088        1231.699          36.000  
G20  22167825.298   116492538.227        2689.981          28.000  
R 6  19356887.290                         710.136          24.000  
R 7  22298085.390                        2159.919          25.000  
R 9  22385687.584   119538221.120        3921.823          40.000  
R21  21415966.919                       -3369.172          26.000  
J 3  36880876.710   193810313.381        -836.581          35.000  
> 2019 10  9  7 18 34.9970000  0 15                     
G 5  21654430.434   113794711.619       -3075.308          38.000  
G13  20934731.628   110012753.090       -2591.731          47.000  
G15  19578752.965   102887041.819        -788.988          41.000  
G24  20005323.573   105128684.529        1809.528          42.000  
G28  23720842.728   124653902.591        -843.398          40.000  
R 5  20540684.674   109801702.322       -2082.581          44.000  
R15  20515012.971   109626180.713       -2868.880          26.000  
J 2  36099532.496   189704343.105        -422.781          35.000  
R16  18970394.674   101336392.277        1230.688          37.000  
G20  22167310.377   116489848.395        2689.952          28.000  
R 6  19356751.771                         710.684          23.000  
R 7  22297684.209                        2159.267          25.000  
R 9  22384953.209   119534299.400        3921.940          40.000  
R21  21416599.175                       -3370.210          26.000  
J 3  36881035.769   193811149.578        -835.759          36.000  
> 2019 10  9  7 18 35.9970000  0 15                     
G 5  21655015.575   113797787.152       -3075.739          39.000  
G13  20935224.910   110015344.924       -2591.802          47.000  
G15  19578903.229   102887830.981        -789.413          42.000  
G24  20004979.524   105126875.408        1808.752          42.000  
G28  23721003.549   124654746.760        -844.386          40.000  
R 5  20541074.372   109803785.003       -2082.716          44.000  
R15  20515546.564   109629049.593       -2868.658          25.000  
J 2  36099613.116   189704766.005        -423.002          35.000  
R16  18970164.854   101335162.256        1229.009          37.000  
G20  22166794.427   116487158.641        2689.620          28.000  
R 6  19356616.166                         715.073          23.000  
R 7  22297283.308                        2159.339          26.000  
R 9  22384219.341   119530377.676        3921.404          40.000  
R21  21417232.600                       -3368.305          26.000  
J 3  36881195.211   193811985.669        -836.280          36.000  
> 2019 10  9  7 18 36.9970000  0 15                     
G 5  21655600.611   113800863.027       -3076.423          39.000  
G13  20935718.089   110017936.920       -2592.148          47.000  
G15  19579053.318   102888620.432        -789.748          42.000  
G24  20004635.546   105125066.831        1808.142          42.000  
G28  23721164.684   124655591.448        -845.103          40.000  
R 5  20541464.611   109805867.946       -2083.154          44.000  
R15  20516082.024   109631919.3232      -2870.232          25.000  
J 2  36099693.754   189705188.987        -423.477          35.000  
R16  18969934.791   101333933.075        1228.530          37.000  
G20  22166280.797   116484469.030        2689.501          28.000  
R 6  19356483.963                         706.060          22.000  
R 7  22296884.570                        2158.736          26.000  
R 9  22383485.507   119526456.009        3921.600          41.000  
R21  21417861.960                       -3370.090          26.000  
J 3  36881354.200   193812821.728        -836.175          35.000  
> 2019 10  9  7 18 37.9970000  0 15                     
G 5  21656185.787   113803938.939       -3075.660          40.000  
G13  20936211.389   110020528.812       -2591.589          47.000  
G15  19579203.547   102889409.945        -789.363          42.000  
G24  20004291.846   105123258.552        1808.624          43.000  
G28  23721325.610   124656436.417        -844.862          40.000  
R 5  20541854.781   109807950.888       -2082.635          45.000  
R15  20516621.044   109634789.4662      -2869.228          25.000  
J 2  36099774.339   189705611.838        -422.785          35.000  
R16  18969704.971   101332704.529        1228.533          37.000  
G20  22165766.242   116481779.236        2690.498          28.000  
R 6  19356352.109                         702.628          22.000  
R 7  22296483.547                        2159.632          27.000  
R 9  22382751.550   119522534.167        3922.331          41.000  
R21  21418489.522                       -3370.885          25.000  
J 3  36881513.084   193813657.468        -835.179          35.000  
> 2019 10  9  7 18 38.9970000  0 15                     
G 5  21656771.591   113807014.914       -3076.673          39.000  
G13  20936704.253   110023120.535       -2592.063          47.000  
G15  19579354.195   102890199.428        -789.980          42.000  
G24  20003947.920   105121450.491        1807.520          43.000  
G28  23721486.885   124657281.583        -845.710          41.000  
R 5  20542245.055   109810033.777       -2083.397          45.000  
R15  20517159.907   109637660.2522      -2872.121          25.000  
J 2  36099854.872   189706034.455        -422.958          35.000  
R16  18969475.327   101331476.534        1227.191          37.000  
G20  22165253.415   116479089.395        2689.139          28.000  
R 6  19356217.498                         708.963          21.000  
R 7  22296082.576   119352634.6801       2159.388          27.000  
R 9  22382017.681   119518612.075        3921.895          41.000  
R21  21419119.004                       -3369.819          25.000  
J 3  36881671.532   193814492.913        -835.828          35.000  
> 2019 10  9  7 18 39.9970000  0 15                     
G 5  21657357.639   113810091.862       -3077.236          39.000  
G13  20937197.553   110025713.110       -2592.867          46.000  
G15  19579504.633   102890989.923        -791.093          42.000  
G24  20003604.185   105119643.663        1806.415          43.000  
G28  23721648.073   124658127.988        -846.993          41.000  
R 5  20542635.155   109812117.625       -2084.058          45.000  
R15  20517695.768                       -2872.814          25.000  
J 2  36099935.526   189706457.937        -424.175          35.000  
R16  18969245.717   101330250.078        1225.910          38.000  
G20  22164741.932   116476400.263        2688.995          28.000  
R 6  19356082.381                         712.414          21.000  
R 7  22295682.652   119350475.987        2158.827          27.000  
R 9  22381283.586   119514690.794        3921.035          41.000  
R21  21419745.816                       -3372.619          25.000  
J 3  36881830.207   193815328.974        -836.346          35.000  
> 2019 10  9  7 18 40.9970000  0 15                     
G 5  21657943.687   113813169.300       -3077.559          39.000  
G13  20937690.818   110028305.983       -2593.193          46.000  
G15  19579655.316   102891780.837        -790.874          42.000  
G24  20003260.451   105117837.513        1805.841          43.000  
G28  23721809.557   124658975.075        -847.427          41.000  
R 5  20543025.132   109814201.899       -2084.531          45.000  
R15  20518232.903                       -2873.287          25.000  
J 2  36100016.216   189706881.636        -423.737          35.000  
R16  18969016.717   101329024.652        1225.149          37.000  
G20  22164229.629   116473711.467        2688.868          28.000  
R 6  19355945.275                         713.266          22.000  
R 7  22295281.506   119348317.392        2158.944          27.000  
R 9  22380549.699   119510769.756        3921.157          41.000  
R21  21420372.523                       -3371.959          25.000  
J 3  36881988.969   193816165.148        -835.912          35.000  
> 2019 10  9  7 18 41.9970000  0 15                     
G 5  21658529.630   113816247.089       -3078.121          40.000  
G13  20938184.049   110030899.037       -2593.337          46.000  
G15  19579806.156   102892572.131        -791.617          42.000  
G24  20002916.961   105116031.921        1805.145          43.000  
G28  23721971.373   124659822.732        -848.127          41.000  
R 5  20543415.633   109816286.458       -2084.726          45.000  
R15  20518771.556   109646279.0032      -2874.483          25.000  
J 2  36100097.046   189707305.498        -424.241          35.000  
R16  18968787.648   101327800.125        1223.820          37.000  
G20  22163717.360   116471022.832        2688.240          28.000  
R 6  19355809.756                         711.523          23.000  
R 7  22294881.024   119346158.920        2157.710          27.000  
R 9  22379815.900   119506848.839        3920.497          42.000  
R21  21420999.823                       -3372.396          26.000  
J 3  36882147.766   193817001.406        -836.831          35.000  
> 2019 10  9  7 18 42.9970000  0 15                     
G 5  21659115.626   113819325.030       -3077.964          41.000  
G13  20938677.593   110033492.067       -2593.190          46.000  
G15  19579957.013   102893363.540        -791.552          42.000  
G24  20002573.523   105114226.684        1804.962          43.000  
G28  23722133.084   124660670.722        -848.224          41.000  
R 5  20543805.558   109818371.118       -2084.825          45.000  
R15  20519305.568                       -2876.436          24.000  
J 2  36100177.805   189707729.272        -423.696          35.000  
R16  18968558.754   101326576.261        1223.296          38.000  
G20  22163206.610   116468334.260        2687.839          28.000  
R 6  19355675.651                         709.994          25.000  
R 7  22294478.656   119344000.5722       2158.442          27.000  
R 9  22379081.962   119502927.805        3921.181          42.000  
R21  21421625.693   114631419.2723      -3372.825          26.000  
J 3  36882306.860   193817837.379        -835.767          35.000  
> 2019 10  9  7 18 43.9970000  0 15                     
G 5  21659701.447   113822403.319       -3078.320          41.000  
G13  20939170.963   110036085.256       -2593.220          46.000  
G15  19580108.254   102894155.259        -791.835          42.000  
G24  20002229.981   105112422.019        1804.321          43.000  
G28  23722294.900   124661519.287        -848.936          41.000  
R 5  20544195.675   109820456.068       -2085.146          45.000  
R15  20519842.371                       -2876.486          24.000  
J 2  36100258.652   189708153.213        -424.190          35.000  
R16  18968329.737   101325353.305        1222.588          37.000  
G20  22162695.597   116465645.683        2688.507          28.000  
R 6  19355542.907                         709.093          25.000  
R 7  22294078.034   119341841.8292       2158.784          27.000  
R 9  22378348.110   119499006.908        3920.860          42.000  
R21  21422249.957   114634792.2252      -3372.897          26.000  
J 3  36882465.936   193818673.336        -835.358          35.000  
> 2019 10  9  7 18 44.9970000  0 15                     
G 5  21660287.600   113825481.786       -3078.544          41.000  
G13  20939664.490   110038678.474       -2593.361          46.000  
G15  19580259.198   102894947.158        -792.098          42.000  
G24  20001886.508   105110617.737        1804.004          42.000  
G28  23722456.454   124662368.243        -849.302          41.000  
R 5  20544585.810   109822541.120       -2085.108          45.000  
R15  20520379.943                       -2876.125          24.000  
J 2  36100339.307   189708577.113        -423.823          35.000  
R16  18968100.913   101324131.066        1222.195          38.000  
G20  22162184.568   116462957.166        2688.798          28.000  
R 6  19355410.216                         709.528          26.000  
R 7  22293677.168   119339682.391        2158.766          27.000  
R 9  22377614.049   119495085.934        3920.969          42.000  
R21  21422875.198   114638165.0871      -3373.282          26.000  
J 3  36882624.873   193819509.198        -835.535          35.000  
> 2019 10  9  7 18 45.9970000  0 15                     
G 5  21660873.788   113828560.527       -3079.108          42.000  
G13  20940157.755   110041271.769       -2593.649          46.000  
G15  19580410.213   102895739.276        -792.347          42.000  
G24  20001543.350   105108813.932        1803.522          42.000  
G28  23722618.724   124663217.645        -849.875          41.000  
R 5  20544976.049   109824626.358       -2085.702          45.000  
R15  20520917.776                       -2875.903          24.000  
J 2  36100420.102   189709001.069        -424.214          35.000  
R16  18967872.210   101322909.679        1220.833          38.000  
G20  22161675.597   116460268.791        2687.806          28.000  
R 6  19355278.310                         710.499          26.000  
R 7  22293277.069   119337523.367        2158.603          27.000  
R 9  22376880.023   119491164.991        3920.711          42.000  
R21  21423504.331   114641538.879       -3373.321          26.000  
J 3  36882783.687   193820344.933        -835.987          35.000  
> 2019 10  9  7 18 46.9970000  0 15                     
G 5  21661460.115   113831639.509       -3078.988          42.000  
G13  20940651.091   110043865.143       -2593.276          46.000  
G15  19580561.070   102896531.640        -792.390          42.000  
G24  20001200.156   105107010.625        1803.290          42.000  
G28  23722780.627   124664067.522        -849.836          41.000  
R 5  20545366.236   109826711.766       -2085.320          45.000  
R15  20521455.208                       -2876.156          25.000  
J 2  36100501.315   189709425.036        -423.427          35.000  
R16  18967643.944   101321689.072        1220.453          38.000  
G20  22161165.685   116457580.372        2688.933          28.000  
R 6  19355146.822                         709.866          26.000  
R 7  22292877.529   119335364.6542       2159.476          28.000  
R 9  22376146.102   119487244.071        3921.060          42.000  
R21  21424133.376   114644913.125       -3374.312          25.000  
J 3  36882942.467   193821180.536        -834.836          35.000  
> 2019 10  9  7 18 47.9970000  0 15                     
G 5  21662046.216   113834718.658       -3078.971          42.000  
G13  20941144.653   110046458.515       -2593.240          46.000  
G15  19580712.380   102897324.131        -792.315          42.000  
G24  20000857.399   105105207.702        1802.960          42.000  
G28  23722942.722   124664917.771        -850.284          41.000  
R 5  20545756.178   109828797.295       -2085.441          44.000  
R15  20521994.769                       -2877.778          25.000  
J 2  36100582.232   189709849.021        -423.657          35.000  
R16  18967415.834   101320469.161        1220.040          38.000  
G20  22160656.243   116454892.020        2688.484          29.000  
R 6  19355015.387                         706.636          26.000  
R 7  22292476.785   119333205.2892       2159.744          28.000  
R 9  22375412.338   119483323.044        3921.072          42.000  
R21  21424764.498   114648287.656       -3374.196          25.000  
J 3  36883101.142   193822015.945        -834.523          34.000  
> 2019 10  9  7 18 48.9970000  0 15                     
G 5  21662632.264   113837797.564       -3079.339          43.000  
G13  20941638.092   110049051.463       -2593.352          46.000  
G15  19580863.290   102898116.377        -792.783          42.000  
G24  20000513.996   105103404.770        1802.179          43.000  
G28  23723104.608   124665767.981        -850.885          41.000  
R 5  20546146.261   109830882.521       -2085.714          44.000  
R15  20522533.614                       -2878.039          26.000  
J 2  36100662.991   189710272.492        -423.542          35.000  
R16  18967187.655   101319249.578        1218.622          38.000  
G20  22160144.149   116452203.193        2688.663          29.000  
R 6  19354880.113                         710.132          25.000  
R 7  22292074.662   119331044.806        2160.120          27.000  
R 9  22374678.050   119479401.556        3921.231          42.000  
R21  21425394.835   114651662.067       -3375.093          25.000  
J 3  36883259.520   193822850.809        -835.005          34.000  
> 2019 10  9  7 18 49.9970000  0 15                     
G 5  21663218.050   113840877.444       -3080.468          43.000  
G13  20942131.637   110051645.223       -2594.199          46.000  
G15  19581014.496   102898909.555        -793.711          42.000  
G24  20000171.309   105101603.018        1801.178          43.000  
G28  23723266.633   124666619.361        -851.951          41.000  
R 5  20546536.273   109832968.659       -2086.595          44.000  
R15  20523073.052                       -2880.512          27.000  
J 2  36100744.047   189710696.762        -424.914          36.000  
R16  18966959.703   101318031.450        1217.325          38.000  
G20  22159635.615   116449515.174        2687.905          29.000  
R 6  19354743.653                         708.190          24.000  
R 7  22291672.784                        2158.830          27.000  
R 9  22373943.972   119475480.812        3920.227          42.000  
R21  21426024.805                       -3376.388          25.000  
J 3  36883418.195   193823686.279        -835.749          34.000  
> 2019 10  9  7 18 50.9970000  0 15                     
G 5  21663803.924   113843958.156       -3080.848          43.000  
G13  20942625.356   110054239.637       -2594.448          46.000  
G15  19581165.720   102899703.572        -794.219          43.000  
G24  19999828.639   105099802.353        1800.348          43.000  
G28  23723429.025   124667471.807        -852.925          41.000  
R 5  20546926.617   109835055.577       -2086.948          44.000  
R15  20523614.829   109671905.9941      -2881.120          27.000  
J 2  36100824.894   189711121.648        -425.189          36.000  
R16  18966731.925   101316814.693        1216.498          38.000  
G20  22159125.126   116446827.821        2687.191          29.000  
R 6  19354609.775                         710.352          23.000  
R 7  22291269.544                        2158.213          27.000  
R 9  22373209.789   119471560.638        3920.013          42.000  
R21  21426657.236                       -3377.366          24.000  
J 3  36883577.061   193824522.234        -836.400          35.000  
> 2019 10  9  7 18 51.9970000  0 15                     
G 5  21664389.954   113847039.218       -3081.407          42.000  
G13  20943119.389   110056834.238       -2594.845          46.000  
G15  19581317.345   102900497.901        -794.541          43.000  
G24  19999486.440   105098002.227        1799.829          43.000  
G28  23723591.364   124668324.779        -853.348          41.000  
R 5  20547317.851   109837142.797       -2087.356          45.000  
R15  20524158.753   109674787.292       -2881.861          28.000  
J 2  36100906.038   189711546.631        -425.015          36.000  
R16  18966504.218   101315598.840        1215.279          38.000  
G20  22158614.759   116444140.625        2687.503          29.000  
R 6  19354473.506                         705.894          22.000  
R 7  22290866.688   119324725.2883       2158.887          26.000  
R 9  22372476.129   119467640.625        3919.718          42.000  
R21  21427292.791                       -3378.693          24.000  
J 3  36883735.946   193825358.174        -836.388          35.000  
> 2019 10  9  7 18 52.9970000  0 15                     
G 5  21664975.653   113850120.522       -3081.458          42.000  
G13  20943613.108   110059428.888       -2594.945          46.000  
G15  19581468.481   102901292.447        -794.851          43.000  
G24  19999144.032   105096202.582        1799.237          43.000  
G28  23723753.738   124669178.225        -853.964          41.000  
R 5  20547708.544   109839230.188       -2087.464          45.000  
R15  20524716.322   109677669.241       -2882.552          30.000  
J 2  36100987.077   189711971.676        -425.141          36.000  
R16  18966276.824   101314383.799        1214.481          38.000  
G20  22158101.566   116441453.521        2686.734          28.000  
R 6  19354340.570                         699.453          21.000  
R 7  22290461.180   119322565.7921       2159.215          26.000  
R 9  22371741.929   119463720.582        3920.018          42.000  
R21  21427930.177                       -3375.083          23.000  
J 3  36883894.725   193826193.986        -835.919          34.000  
> 2019 10  9  7 18 53.9970000  0 15                     
G 5  21665561.492   113853202.229       -3081.930          42.000  
G13  20944106.600   110062023.784       -2595.139          46.000  
G15  19581620.455   102902087.410        -795.347          43.000  
G24  19998801.606   105094403.530        1798.822          43.000  
G28  23723916.270   124670032.263        -854.256          41.000  
R 5  20548099.184   109841317.956       -2087.875          45.000  
R15  20525264.241   109680552.075       -2883.016          30.000  
J 2  36101068.115   189712396.891        -425.113          35.000  
R16  18966049.168   101313169.743        1213.421          38.000  
G20  22157590.676   116438766.580        2686.974          28.000  
R 6  19354207.058                         702.892          21.000  
