     3.02           OBSERVATION DATA    M: Mixed            RINEX VERSION / TYPE
RTKCONV 2.4.2                           20191009 090858 UTC PGM / RUN BY / DATE 
log: C:\Users\Shimpei\Documents\signal_classifier\data\191  COMMENT             
format: u-blox                                              COMMENT             
                                                            MARKER NAME         
                                                            MARKER NUMBER       
                                                            MARKER TYPE         
                                                            OBSERVER / AGENCY   
                                                            REC # / TYPE / VERS 
                                                            ANT # / TYPE        
 -3751245.6886  3686071.3732  3596584.2659                  APPROX POSITION XYZ 
        0.0000        0.0000        0.0000                  ANTENNA: DELTA H/E/N
G    4 C1C L1C D1C S1C                                      SYS / # / OBS TYPES 
R    4 C1C L1C D1C S1C                                      SYS / # / OBS TYPES 
J    4 C1C L1C D1C S1C                                      SYS / # / OBS TYPES 
  2019    10     9     7    17   34.9970000     GPS         TIME OF FIRST OBS   
  2019    10     9     7    48   33.9980000     GPS         TIME OF LAST OBS    
G                                                           SYS / PHASE SHIFT   
R                                                           SYS / PHASE SHIFT   
J                                                           SYS / PHASE SHIFT   
  0                                                         GLONASS SLOT / FRQ #
 C1C    0.000 C1P    0.000 C2C    0.000 C2P    0.000        GLONASS COD/PHS/BIS 
                                                            END OF HEADER       
> 2019 10  9  7 17 34.9970000  0 13                     
G 5  21724801.840   114164590.525       -3151.584          48.000  
G13  21010576.015   110411335.406       -2678.335          46.000  
G15  19675234.102   103394052.442        -866.426          50.000  
G24  20131552.306   105792023.927        1745.969          47.000  
G28  23816781.303   125158042.878        -907.909          38.000  
R16  19089898.843   101974760.162        1185.002          44.000  
R15  20588483.012   110018568.656       -2920.629          47.000  
J 1  37992384.069   199651326.951         -63.708          41.000  
J 2  36200129.267   190232956.267        -511.787          44.000  
R 5  20622787.861   110240583.202       -2164.356          49.000  
R 9  22534439.174   120332628.596        3829.326          36.000  
R 7  22427378.607                        2063.937          23.000  
R 6  19470197.905   103896470.849         627.289          32.000  
> 2019 10  9  7 17 35.9970000  0 14                     
G 5  21725401.744   114167741.996       -3151.783          49.000  
G13  21011085.806   110414013.600       -2678.523          46.000  
G15  19675398.902   103394918.836        -866.639          50.000  
G24  20131219.704   105790278.044        1745.524          47.000  
G28  23816953.816   125158950.705        -908.281          38.000  
R16  19089676.614   101973575.359        1184.246          43.000  
R15  20589030.164   110021489.363       -2921.113          47.000  
J 1  37992396.162   199651390.351         -63.452          41.000  
J 2  36200226.657   190233467.909        -511.890          44.000  
R 5  20623193.457   110242747.483       -2164.625          49.000  
R 9  22533722.179   120328799.078        3829.017          37.000  
R21  21485039.069                       -3436.066          27.000  
R 7  22426992.399                        2058.441          25.000  
R 6  19470080.465   103895843.781         626.250          33.000  
> 2019 10  9  7 17 36.9970000  0 14                     
G 5  21726001.560   114170893.588       -3151.352          49.000  
G13  21011595.596   110416691.718       -2677.881          46.000  
G15  19675563.912   103395785.314        -866.216          50.000  
G24  20130887.208   105788532.448        1745.720          46.000  
G28  23817126.573   125159858.828        -908.043          38.000  
R16  19089455.171   101972391.190        1184.051          43.000  
R15  20589577.769   110024410.636       -2921.326          47.000  
J 1  37992408.063   199651453.471         -62.512          41.000  
J 2  36200323.889   190233979.437        -511.099          44.000  
R 5  20623598.389   110244911.782       -2163.983          49.000  
R 9  22533004.731   120324969.393        3829.871          36.000  
R21  21485681.446   114974192.6142      -3435.474          27.000  
R 7  22426606.313   120051359.6662       2060.242          27.000  
R 6  19469962.868   103895216.694         627.055          33.000  
> 2019 10  9  7 17 37.9970000  0 14                     
G 5  21726601.289   114174045.275       -3152.281          49.000  
G13  21012105.387   110419369.766       -2678.387          46.000  
G15  19675728.903   103396651.859        -867.129          50.000  
G24  20130555.078   105786787.150        1744.698          47.000  
G28  23817299.382   125160767.284        -908.893          38.000  
R16  19089233.798   101971207.656        1182.618          44.000  
R15  20590125.584   110027332.453       -2922.655          47.000  
J 1  37992420.121   199651516.349         -63.452          41.000  
J 2  36200421.436   190234490.859        -511.762          44.000  
R 5  20624003.600   110247076.109       -2164.961          49.000  
R 9  22532286.986   120321139.545        3829.239          36.000  
R21  21486322.183   114977628.7632      -3436.872          28.000  
R 7  22426224.136                        2059.979          26.000  
R 6  19469845.376   103894589.506         627.313          33.000  
> 2019 10  9  7 17 38.9970000  0 14                     
G 5  21727201.350   114177197.996       -3153.074          49.000  
G13  21012615.474   110422048.658       -2679.125          46.000  
G15  19675894.139   103397519.403        -867.848          50.000  
G24  20130223.314   105785043.073        1743.772          46.000  
G28  23817472.558   125161676.948        -909.952          38.000  
R16  19089012.581   101970025.690        1181.413          44.000  
R15  20590673.294   110030255.701       -2923.776          47.000  
J 1  37992432.266   199651579.853         -63.361          40.000  
J 2  36200519.227   190235003.092        -512.444          44.000  
R 5  20624408.480   110249241.385       -2165.540          49.000  
R 9  22531569.730   120317310.502        3828.660          37.000  
R21  21486966.724   114981066.0682      -3437.802          29.000  
R 7  22425839.114                        2058.984          24.000  
R 6  19469728.093   103893963.361         625.320          33.000  
> 2019 10  9  7 17 39.9970000  0 14                     
G 5  21727801.445   114180351.590       -3153.879          49.000  
G13  21013125.806   110424728.271       -2679.872          46.000  
G15  19676059.201   103398387.819        -868.739          50.000  
G24  20129891.673   105783300.127        1742.499          47.000  
G28  23817646.048   125162587.708        -910.942          38.000  
R16  19088791.923   101968845.152        1179.867          44.000  
R15  20591220.707   110033180.244       -2925.023          47.000  
J 1  37992444.115   199651643.914         -64.423          40.000  
J 2  36200616.879   190235516.005        -513.335          44.000  
R 5  20624813.238   110251407.516       -2166.441          49.000  
R 9  22530852.997   120313482.080        3828.185          38.000  
R21  21487612.051   114984504.4752      -3439.061          29.000  
R 7  22425455.715                        2058.725          23.000  
R 6  19469610.932   103893337.906         624.717          32.000  
> 2019 10  9  7 17 40.9970000  0 15                     
G 5  21728401.890   114183505.493       -3154.217          49.000  
G13  21013635.911   110427408.015       -2679.989          46.000  
G15  19676224.612   103399256.518        -869.033          50.000  
G24  20129560.258   105781557.695        1742.069          46.000  
G28  23817819.189   125163498.995        -911.437          37.000  
R16  19088571.353   101967665.439        1179.216          44.000  
R15  20591768.522   110036105.530       -2925.872          47.000  
J 1  37992456.400   199651707.891         -64.191          41.000  
J 2  36200714.827   190236029.000        -513.175          45.000  
R 5  20625218.136   110253573.900       -2166.718          49.000  
R 9  22530136.072   120309653.769        3828.117          38.000  
R21  21488249.542   114987943.3952      -3438.934          30.000  
R 7  22425074.673                        2051.456          22.000  
R 6  19469493.527   103892712.660         624.012          31.000  
R22  22064502.616                         -90.143          26.000  
> 2019 10  9  7 17 41.9970000  0 15                     
G 5  21729002.195   114186659.759       -3154.395          49.000  
G13  21014145.859   110430087.942       -2679.914          46.000  
G15  19676389.918   103400125.545        -869.085          50.000  
G24  20129228.635   105779815.840        1741.584          46.000  
G28  23817992.679   125164410.844        -911.972          37.000  
R16  19088350.747   101966486.632        1178.402          44.000  
R15  20592316.616   110039031.642       -2926.448          47.000  
J 1  37992468.598   199651771.858         -63.727          41.000  
J 2  36200812.757   190236542.140        -513.191          45.000  
R 5  20625623.207   110255740.561       -2166.752          49.000  
R 9  22529419.287   120305825.553        3828.273          38.000  
R21  21488891.099   114991382.8422      -3439.903          30.000  
R 7  22424692.617                        2049.717          21.000  
R 6  19469375.930   103892087.628         624.917          30.000  
R22  22064530.048                         -90.177          25.000  
> 2019 10  9  7 17 42.9970000  0 15                     
G 5  21729602.570   114189814.336       -3155.046          49.000  
G13  21014656.260   110432768.010       -2680.491          46.000  
G15  19676555.555   103400994.879        -869.817          50.000  
G24  20128897.342   105778074.511        1740.574          46.000  
G28  23818166.449   125165323.199        -912.891          37.000  
R16  19088130.263   101965308.695        1177.075          44.000  
R15  20592864.204   110041958.515       -2927.585          47.000  
J 1  37992480.534   199651835.776         -64.136          40.000  
J 2  36200910.269   190237055.377        -513.609          44.000  
R 5  20626028.384   110257907.482       -2167.437          50.000  
R 9  22528702.502   120301997.391        3827.678          38.000  
R21  21489520.337   114994822.711       -3440.293          29.000  
R 7  22424308.364                        2052.514          19.000  
R 6  19469258.682   103891462.795         624.369          31.000  
R22  22064554.723                         -91.450          25.000  
> 2019 10  9  7 17 43.9970000  0 14                     
G 5  21730203.101   114192969.277       -3155.302          49.000  
G13  21015166.312   110435448.280       -2680.500          46.000  
G15  19676721.315   103401864.559        -870.065          51.000  
G24  20128566.085   105776333.741        1740.384          46.000  
G28  23818339.817   125166236.118        -913.342          37.000  
R16  19087910.007   101964131.672        1176.370          44.000  
R15  20593412.210   110044886.182       -2928.175          47.000  
J 1  37992492.854   199651899.709         -64.032          41.000  
J 2  36201008.060   190237568.769        -513.673          44.000  
R 5  20626433.735   110260074.682       -2167.454          50.000  
R 9  22527985.891   120298169.347        3827.997          38.000  
R21  21490166.484   114998263.246       -3440.954          29.000  
R 7  22423923.133                        2063.148          17.000  
R 6  19469141.242   103890838.278         623.686          31.000  
> 2019 10  9  7 17 44.9970000  0 14                     
G 5  21730803.441   114196124.625       -3155.255          49.000  
G13  21015676.853   110438128.782       -2680.227          46.000  
G15  19676886.865   103402734.621        -869.939          51.000  
G24  20128234.810   105774593.611        1740.345          46.000  
G28  23818513.743   125167149.682        -913.702          37.000  
R16  19087689.837   101962955.580        1175.886          44.000  
R15  20593960.514   110047814.690       -2928.620          47.000  
J 1  37992505.069   199651963.663         -63.715          41.000  
J 2  36201105.712   190238082.365        -513.462          44.000  
R 5  20626839.383   110262242.204       -2167.240          50.000  
R 9  22527268.931   120294341.454        3828.127          38.000  
R21  21490811.845   115001704.376       -3441.707          30.000  
R 7  22423532.544                        2081.630          12.000  
R 6  19469023.663   103890214.025         625.029          31.000  
> 2019 10  9  7 17 45.9970000  0 14                     
G 5  21731404.165   114199280.298       -3156.084          49.000  
G13  21016187.010   110440809.441       -2680.946          47.000  
G15  19677052.642   103403604.994        -870.835          51.000  
G24  20127904.041   105772854.054        1738.977          46.000  
G28  23818687.826   125168063.734        -914.504          36.000  
R16  19087470.104   101961780.339        1174.425          44.000  
R15  20594508.607   110050743.947       -2930.052          47.000  
J 1  37992517.755   199652027.574         -64.008          41.000  
J 2  36201203.258   190238596.059        -513.958          44.000  
R 5  20627244.682   110264409.981       -2168.198          50.000  
R 9  22526552.234   120290513.668        3827.513          38.000  
R21  21491457.782   115005146.040       -3443.510          30.000  
R 7  22423146.214                        2055.101          14.000  
R 6  19468906.310   103889589.996         623.628          31.000  
> 2019 10  9  7 17 46.9970000  0 14                     
G 5  21732004.261   114202436.008       -3155.482          49.000  
G13  21016697.499   110443489.956       -2680.103          47.000  
G15  19677218.349   103404475.376        -870.074          51.000  
G24  20127572.731   105771114.717        1739.538          46.000  
G28  23818861.421   125168978.045        -913.828          36.000  
R16  19087250.266   101960605.641        1174.680          44.000  
R15  20595056.928   110053673.631       -2929.621          47.000  
J 1  37992529.883   199652091.168         -63.116          41.000  
J 2  36201300.857   190239109.583        -513.094          44.000  
R 5  20627650.521   110266577.726       -2167.361          50.000  
R 9  22525835.361   120286685.632        3828.611          38.000  
R21  21492100.264   115008587.796       -3441.693          30.000  
R 7  22422761.419                        2058.920          16.000  
R 6  19468788.975   103888965.822         624.608          30.000  
> 2019 10  9  7 17 47.9970000  0 14                     
G 5  21732604.862   114205591.660       -3156.329          49.000  
G13  21017207.831   110446170.248       -2680.935          47.000  
G15  19677384.074   103405345.682        -871.012          51.000  
G24  20127241.683   105769375.531        1738.344          46.000  
G28  23819034.964   125169892.525        -915.511          35.000  
R16  19087030.463   101959431.420        1173.370          44.000  
R15  20595605.092   110056603.713       -2931.065          47.000  
J 1  37992541.941   199652154.334         -63.770          41.000  
J 2  36201398.648   190239622.829        -513.769          44.000  
R 5  20628056.064   110268745.366       -2168.213          50.000  
R 9  22525118.820   120282857.296        3827.758          39.000  
R21  21492746.376   115012029.716       -3442.036          31.000  
R 7  22422376.118                        2058.920          14.000  
R 6  19468671.674   103888341.591         622.915          31.000  
> 2019 10  9  7 17 48.9970000  0 13                     
G 5  21733205.586   114208748.483       -3157.140          49.000  
G13  21017718.197   110448851.518       -2681.557          47.000  
G15  19677550.043   103406217.122        -871.660          51.000  
G24  20126910.984   105767637.709        1737.525          46.000  
G28  23819209.326   125170808.322        -916.214          36.000  
R16  19086811.132   101958258.935        1171.855          44.000  
R15  20596153.378   110059535.424       -2932.292          47.000  
J 1  37992553.982   199652218.283         -63.910          41.000  
J 2  36201496.753   190240137.025        -514.416          44.000  
R 5  20628462.131   110270914.115       -2168.982          50.000  
R 9  22524402.018   120279029.860        3827.222          38.000  
R21  21493389.591   115015473.004       -3443.160          30.000  
R 6  19468553.484   103887718.342         623.069          31.000  
> 2019 10  9  7 17 49.9970000  0 13                     
G 5  21733806.414   114211906.050       -3157.902          49.000  
G13  21018228.110   110451533.370       -2681.978          46.000  
G15  19677715.785   103407089.300        -872.430          51.000  
G24  20126580.721   105765900.849        1736.538          46.000  
G28  23819383.671   125171725.122        -917.046          36.000  
R16  19086591.922   101957087.762        1170.414          44.000  
R15  20596701.664   110062468.308       -2933.396          46.000  
J 1  37992565.987   199652282.640         -64.404          41.000  
J 2  36201594.719   190240651.766        -514.941          44.000  
R 5  20628867.849   110273083.563       -2169.838          50.000  
R 9  22523685.250   120275202.952        3826.739          38.000  
R21  21494033.923   115018917.262       -3443.273          31.000  
R 6  19468438.295   103887095.709         622.234          31.000  
> 2019 10  9  7 17 50.9970000  0 13                     
G 5  21734407.452   114215064.143       -3158.118          49.000  
G13  21018738.512   110454215.574       -2682.198          46.000  
G15  19677881.667   103407961.984        -872.772          50.000  
G24  20126250.563   105764164.707        1735.840          46.000  
G28  23819558.156   125172642.643        -918.061          36.000  
R16  19086372.800   101955917.661        1169.783          44.000  
R15  20597250.735   110065402.133       -2934.144          47.000  
J 1  37992578.133   199652347.142         -64.606          41.000  
J 2  36201692.824   190241166.812        -515.057          44.000  
R 5  20629273.549   110275253.450       -2169.958          50.000  
R 9  22522968.901   120271376.325        3826.619          39.000  
R21  21494672.775   115022362.312       -3445.934          31.000  
R 6  19468321.955   103886473.531         622.210          32.000  
> 2019 10  9  7 17 51.9970000  0 14                     
G 5  21735008.316   114218222.509       -3158.542          49.000  
G13  21019248.808   110456897.885       -2682.469          46.000  
G15  19678047.810   103408834.921        -873.214          50.000  
G24  20125920.213   105762429.018        1735.205          46.000  
G28  23819732.885   125173560.639        -918.636          36.000  
R16  19086153.817   101954748.375        1168.593          44.000  
R15  20597799.928   110068336.673       -2935.048          47.000  
J 1  37992590.418   199652411.549         -64.410          41.000  
J 2  36201790.894   190241681.918        -515.460          44.000  
R 5  20629679.354   110277423.553       -2170.330          50.000  
R 9  22522252.290   120267549.714        3826.919          39.000  
R21  21495311.035   115025807.677       -3444.753          30.000  
R 6  19468205.405   103885851.460         622.053          32.000  
R22  22064712.490                         -98.840          25.000  
> 2019 10  9  7 17 52.9970000  0 14                     
G 5  21735609.231   114221381.214       -3158.680          49.000  
G13  21019759.035   110459580.356       -2682.464          46.000  
G15  19678214.285   103409708.173        -873.372          50.000  
G24  20125590.159   105760693.878        1734.933          46.000  
G28  23819908.120   125174479.139        -918.460          36.000  
R16  19085935.026   101953579.923        1168.056          44.000  
R15  20598349.034   110071271.983       -2935.631          46.000  
J 1  37992602.877   199652475.928         -64.288          41.000  
J 2  36201888.720   190242197.130        -515.091          44.000  
R 5  20630085.298   110279593.919       -2170.421          50.000  
R 9  22521535.854   120263723.189        3827.038          39.000  
R21  21495953.744   115029253.676       -3446.721          30.000  
R 6  19468088.488   103885229.600         622.465          32.000  
R22  22064740.009                        -100.853          25.000  
> 2019 10  9  7 17 53.9970000  0 14                     
G 5  21736210.269   114224540.236       -3159.122          49.000  
G13  21020269.471   110462262.957       -2682.698          46.000  
G15  19678380.202   103410581.693        -873.486          50.000  
G24  20125260.246   105758959.254        1734.466          46.000  
G28  23820083.233   125175398.175        -919.084          36.000  
R16  19085716.602   101952412.283        1167.475          44.000  
R15  20598898.245   110074208.028       -2936.395          47.000  
J 1  37992615.389   199652540.239         -64.325          41.000  
J 2  36201986.581   190242712.446        -515.265          44.000  
R 5  20630491.382   110281764.516       -2170.612          50.000  
R 9  22520819.069   120259896.745        3826.539          38.000  
R21  21496595.615   115032700.050       -3446.873          30.000  
R 6  19467973.299   103884608.003         621.594          32.000  
R22  22064766.551                        -101.339          26.000  
> 2019 10  9  7 17 54.9970000  0 14                     
G 5  21736811.394   114227699.531       -3159.414          49.000  
G13  21020779.821   110464945.656       -2682.551          46.000  
G15  19678546.084   103411455.493        -873.877          50.000  
G24  20124930.628   105757225.134        1733.920          47.000  
G28  23820258.171   125176317.687        -919.486          36.000  
R16  19085498.142   101951245.461        1166.697          44.000  
R15  20599447.892   110077144.772       -2936.993          47.000  
J 1  37992627.883   199652604.458         -64.001          40.000  
J 2  36202084.704   190243227.830        -515.579          44.000  
R 5  20630897.396   110283935.350       -2170.900          50.000  
R 9  22520102.877   120256070.336        3826.328          39.000  
R21  21497240.086   115036146.960       -3446.833          29.000  
R 6  19467859.227   103883986.573         620.932          32.000  
R22  22064795.152   117783248.4842       -101.613          28.000  
> 2019 10  9  7 17 55.9970000  0 14                     
G 5  21737412.450   114230859.111       -3159.812          49.000  
G13  21021290.047   110467628.485       -2683.061          46.000  
G15  19678711.983   103412329.540        -874.311          50.000  
G24  20124600.715   105755491.512        1733.367          47.000  
G28  23820433.092   125177237.706        -920.653          35.000  
R16  19085280.137   101950079.490        1165.403          44.000  
R15  20599997.399   110080082.233       -2937.888          47.000  
J 1  37992639.889   199652668.620         -64.349          41.000  
J 2  36202182.826   190243743.284        -515.616          44.000  
R 5  20631303.707   110286106.387       -2171.256          50.000  
R 9  22519386.476   120252243.977        3826.294          39.000  
R21  21497890.351   115039594.383       -3447.668          30.000  
R 6  19467744.614   103883365.255         621.010          33.000  
R22  22064819.809   117783350.8032       -102.420          28.000  
> 2019 10  9  7 17 56.9970000  0 14                     
G 5  21738013.644   114234018.951       -3159.456          49.000  
G13  21021800.623   110470311.389       -2682.378          46.000  
G15  19678878.162   103413203.833        -873.905          50.000  
G24  20124271.045   105753758.392        1733.245          46.000  
G28  23820607.961   125178158.162        -920.208          35.000  
R16  19085061.677   101948914.309        1165.294          44.000  
R15  20600547.273   110083020.406       -2937.986          47.000  
J 1  37992652.017   199652732.659         -63.629          41.000  
J 2  36202280.652   190244258.778        -514.933          44.000  
R 5  20631709.861   110288277.620       -2170.939          50.000  
R 9  22518670.389   120248417.607        3826.758          39.000  
R21  21498540.320   115043042.200       -3447.048          31.000  
R 6  19467628.134   103882744.071         621.691          33.000  
R22  22064844.815   117783453.9852       -103.063          28.000  
> 2019 10  9  7 17 57.9970000  0 14                     
G 5  21738615.049   114237178.517       -3159.840          49.000  
G13  21022310.920   110472993.847       -2682.584          46.000  
G15  19679044.165   103414077.832        -874.226          50.000  
G24  20123941.149   105752025.175        1732.911          47.000  
G28  23820783.126   125179078.563        -920.431          35.000  
R16  19084843.585   101947749.414        1164.449          44.000  
R15  20601097.042   110085958.724       -2938.815          47.000  
J 1  37992664.110   199652796.066         -63.593          41.000  
J 2  36202378.426   190244773.790        -515.102          44.000  
R 5  20632116.364   110290448.500       -2171.157          50.000  
R 9  22517953.674   120244590.719        3826.639          39.000  
R21  21499188.211   115046489.915       -3448.044          30.000  
R 6  19467511.968   103882122.508         621.296          33.000  
R22  22064867.117   117783557.3252       -104.054          27.000  
> 2019 10  9  7 17 58.9970000  0 14                     
G 5  21739216.558   114240339.070       -3160.999          49.000  
G13  21022821.199   110475677.118       -2683.568          46.000  
G15  19679210.518   103414952.789        -875.256          50.000  
G24  20123611.619   105750293.183        1731.467          46.000  
G28  23820958.518   125180000.174        -922.262          35.000  
R16  19084625.876   101946586.050        1162.754          44.000  
R15  20601647.422   110088898.463       -2940.378          47.000  
J 1  37992676.412   199652860.083         -64.319          41.000  
J 2  36202476.618   190245289.571        -516.018          44.000  
R 5  20632522.692   110292620.333       -2172.216          50.000  
R 9  22517237.709   120240764.538        3825.816          39.000  
R21  21499835.387   115049938.810       -3449.726          30.000  
R 6  19467396.186   103881501.841         619.606          33.000  
R22  22064891.163   117783662.2732       -105.586          27.000  
> 2019 10  9  7 17 59.9970000  0 15                     
G 5  21739818.346   114243500.536       -3161.485          49.000  
G13  21023331.915   110478361.141       -2683.962          46.000  
G15  19679377.430   103415828.651        -875.836          50.000  
G24  20123281.932   105748562.291        1730.858          47.000  
G28  23821133.980   125180922.877        -922.665          35.000  
R16  19084408.551   101945424.161        1161.642          44.000  
R15  20602197.959   110091839.553       -2941.226          47.000  
J 1  37992688.593   199652924.649         -64.349          41.000  
J 2  36202574.915   190245806.066        -516.409          44.000  
R 5  20632929.125   110294793.028       -2172.587          49.000  
R 9  22516522.023   120236939.051        3825.854          39.000  
R21  21500477.067   115053388.752       -3448.856          30.000  
R 7  22417620.044                        2054.014          13.000  
R 6  19467280.089   103880881.965         619.875          33.000  
R22  22064911.004   117783768.6132       -106.343          26.000  
> 2019 10  9  7 18  0.9970000  0 15                     
G 5  21740419.890   114246662.468       -3161.982          49.000  
G13  21023842.787   110481045.441       -2684.177          46.000  
G15  19679543.975   103416704.953        -876.255          50.000  
G24  20122952.489   105746832.097        1730.001          46.000  
G28  23821309.477   125181846.270        -923.687          35.000  
R16  19084191.261   101944263.253        1160.763          43.000  
R15  20602748.391   110094781.543       -2942.243          47.000  
J 1  37992700.895   199652989.320         -64.508          41.000  
J 2  36202673.125   190246322.807        -516.794          44.000  
R 5  20633335.331   110296966.110       -2173.147          49.000  
R 9  22515806.128   120233113.793        3825.522          40.000  
R21  21501123.458   115056839.464       -3451.042          30.000  
R 7  22417236.994                        2053.652          17.000  
R 6  19467164.045   103880262.426         619.467          33.000  
R22  22064927.267   117784004.9733       -107.846          26.000  
> 2019 10  9  7 18  1.9970000  0 16                     
G 5  21741021.643   114249824.667       -3162.352          49.000  
G13  21024353.468   110483729.847       -2684.316          46.000  
G15  19679710.851   103417581.495        -876.587          50.000  
G24  20122623.675   105745102.376        1729.594          47.000  
G28  23821485.044   125182770.119        -923.982          36.000  
R16  19083973.656   101943103.164        1159.790          43.000  
R15  20603299.364   110097724.226       -2943.083          47.000  
J 1  37992713.198   199653053.889         -64.636          40.000  
J 2  36202771.370   190246839.588        -516.856          44.000  
R 5  20633742.009   110299139.362       -2173.298          49.000  
R 9  22515090.337   120229288.578        3825.126          40.000  
R20  23817380.610                       -4576.269          24.000  
R21  21501764.177   115060290.539       -3451.254          29.000  
R 7  22416855.864                        2055.277          20.000  
R 6  19467048.089   103879643.007         620.132          32.000  
R22  22064942.065                        -109.808          24.000  
> 2019 10  9  7 18  2.9970000  0 14                     
G 5  21741623.362   114252987.192       -3162.673          49.000  
G13  21024864.672   110486414.390       -2684.589          46.000  
G15  19679877.483   103418458.346        -877.138          50.000  
G24  20122294.948   105743373.184        1728.913          47.000  
G28  23821661.012   125183694.490        -924.937          36.000  
R16  19083756.837   101941943.920        1158.673          43.000  
R15  20603850.006   110100667.663       -2944.011          46.000  
J 1  37992725.482   199653118.395         -64.514          40.000  
J 2  36202869.527   190247356.491        -517.000          44.000  
R 5  20634148.791   110301312.876       -2173.805          49.000  
R 9  22514374.861   120225463.446        3824.845          40.000  
R21  21502403.065   115063742.114       -3451.273          28.000  
R 7  22416473.373                        2056.469          20.000  
R 6  19466931.661   103879023.873         619.562          32.000  
> 2019 10  9  7 18  3.9970000  0 15                     
G 5  21742225.429   114256149.949       -3162.922          49.000  
G13  21025375.667   110489099.010       -2684.644          46.000  
G15  19680044.290   103419335.400        -877.292          50.000  
G24  20121965.941   105741644.430        1728.521          47.000  
G28  23821836.736   125184619.301        -925.186          36.000  
R16  19083539.774   101940785.458        1157.988          43.000  
R15  20604400.839   110103611.763       -2944.421          47.000  
J 1  37992737.541   199653182.785         -64.478          40.000  
J 2  36202967.842   190247873.408        -516.952          44.000  
R 5  20634555.398   110303486.563       -2173.777          49.000  
R 9  22513658.809   120221638.262        3825.126          40.000  
R21  21503049.316   115067194.175       -3452.764          28.000  
R 7  22416094.564                        2052.603          21.000  
R 6  19466815.093   103878404.886         618.382          31.000  
R22  22064979.548                        -109.593          24.000  
> 2019 10  9  7 18  4.9970000  0 15                     
G 5  21742827.461   114259312.981       -3163.149          49.000  
G13  21025886.958   110491783.724       -2684.696          46.000  
G15  19680211.114   103420212.704        -877.467          50.000  
G24  20121636.708   105739916.163        1727.886          47.000  
G28  23822012.948   125185544.616        -925.881          36.000  
R16  19083322.693   101939627.808        1157.355          43.000  
R15  20604951.603   110106556.569       -2945.123          46.000  
J 1  37992749.948   199653247.073         -64.105          40.000  
J 2  36203066.086   190248390.392        -517.076          44.000  
R 5  20634961.779   110305660.502       -2174.065          48.000  
R 9  22512942.948   120217813.165        3825.054          40.000  
R21  21503695.061   115070646.707       -3453.246          27.000  
R 7  22415712.072                        2066.867          22.000  
R 6  19466690.953   103877786.059         618.316          31.000  
R22  22064999.930                        -110.999          24.000  
> 2019 10  9  7 18  5.9970000  0 16                     
G 5  21743429.424   114262476.310       -3163.682          49.000  
G13  21026398.093   110494468.565       -2685.230          46.000  
G15  19680378.060   103421090.289        -878.005          50.000  
G24  20121307.789   105738188.375        1727.262          47.000  
G28  23822188.951   125186470.370        -926.322          36.000  
R16  19083106.032   101938470.994        1156.152          43.000  
R15  20605502.786   110109502.108       -2946.194          46.000  
J 1  37992762.233   199653311.298         -64.508          40.000  
J 2  36203164.436   190248907.453        -517.408          44.000  
R 5  20635368.037   110307834.652       -2174.584          49.000  
R 9  22512226.966   120213988.049        3824.643          40.000  
G12  24944628.313                        2409.345          15.000  
R21  21504339.550   115074099.675       -3453.695          26.000  
R 7  22415330.471                        2050.988          21.000  
R 6  19466571.070   103877167.354         618.771          30.000  
R22  22065019.701                        -113.803          24.000  
> 2019 10  9  7 18  6.9970000  0 16                     
G 5  21744031.108   114265639.946       -3163.845          49.000  
G13  21026909.367   110497153.524       -2684.972          47.000  
G15  19680545.146   103421968.153        -877.914          50.000  
G24  20120979.341   105736461.143        1726.995          47.000  
G28  23822365.372   125187396.694        -926.686          36.000  
R16  19082889.719   101937315.018        1155.682          43.000  
R15  20606054.038   110112448.370       -2946.587          46.000  
J 1  37992774.343   199653375.453         -63.892          40.000  
J 2  36203262.907   190249424.605        -517.270          44.000  
R 5  20635774.435   110310009.025       -2174.610          49.000  
R 9  22511511.106   120210163.020        3825.207          40.000  
G12  24944176.160                        2409.345          14.000  
R21  21504986.447   115077553.091       -3453.184          26.000  
R 7  22414948.032                        2058.133          20.000  
R 6  19466447.138   103876548.920         618.679          30.000  
R22  22065039.856                        -114.211          24.000  
> 2019 10  9  7 18  7.9970000  0 16                     
G 5  21744633.332   114268803.312       -3163.540          49.000  
G13  21027420.396   110499838.052       -2684.515          47.000  
G15  19680712.337   103422845.732        -877.811          50.000  
G24  20120650.457   105734733.858        1727.101          47.000  
G28  23822541.410   125188322.927        -926.465          36.000  
R16  19082673.406   101936159.302        1155.398          43.000  
R15  20606605.221   110115394.812       -2946.756          46.000  
J 1  37992786.314   199653439.000         -63.507          40.000  
J 2  36203361.379   190249941.282        -516.746          44.000  
R 5  20636180.921   110312183.038       -2174.154          49.000  
R 9  22510795.350   120206337.446        3825.701          41.000  
G12  24943715.160                        2409.345          14.000  
R21  21505630.326                       -3452.743          25.000  
R 7  22414564.668                        2057.198          19.000  
R 6  19466335.020   103875930.095         618.333          31.000  
R22  22065060.395                        -112.506          25.000  
> 2019 10  9  7 18  8.9970000  0 16                     
G 5  21745235.539   114271967.361       -3164.857          49.000  
G13  21027931.408   110502523.095       -2685.814          47.000  
G15  19680879.527   103423723.960        -879.008          50.000  
G24  20120321.799   105733007.466        1725.494          46.000  
G28  23822717.954   125189250.059        -928.296          36.000  
R16  19082457.163   101935004.805        1153.520          44.000  
R15  20607156.560   110118342.347       -2948.506          46.000  
J 1  37992798.494   199653502.842         -64.185          40.000  
J 2  36203459.868   190250458.432        -517.858          44.000  
R 5  20636587.319   110314357.695       -2175.403          49.000  
R 9  22510079.420   120202512.316        3824.700          41.000  
G12  24943262.624                        2409.345          13.000  
R21  21506274.448                       -3456.121          24.000  
R 7  22414181.287                        2047.079          18.000  
R 6  19466224.247   103875311.716         618.262          31.000  
R22  22065083.866                        -114.715          25.000  
> 2019 10  9  7 18  9.9970000  0 16                     
G 5  21745837.868   114275132.333       -3165.302          49.000  
G13  21028442.298   110505208.880       -2686.003          46.000  
G15  19681046.875   103424603.110        -879.476          50.000  
G24  20119993.386   105731282.223        1724.801          46.000  
G28  23822894.707   125190178.335        -928.856          37.000  
R16  19082240.850   101933851.778        1152.336          43.000  
R15  20607708.109   110121291.242       -2949.440          46.000  
J 1  37992810.831   199653567.257         -64.459          40.000  
J 2  36203558.392   190250976.290        -518.183          44.000  
R 5  20636994.310   110316533.252       -2175.948          49.000  
R 9  22509363.978   120198687.924        3824.112          41.000  
G12  24942807.854                        2409.345          11.000  
R21  21506919.617                       -3457.582          24.000  
R 7  22413800.034                        2063.810          19.000  
R 6  19466108.133   103874694.225         617.312          32.000  
R22  22065103.235                        -114.500          25.000  
> 2019 10  9  7 18 10.9970000  0 16                     
G 5  21746440.006   114278297.768       -3165.636          49.000  
G13  21028953.642   110507894.962       -2686.333          47.000  
G15  19681214.309   103425482.683        -879.836          50.000  
G24  20119665.147   105729557.650        1724.157          46.000  
G28  23823071.775   125191107.253        -929.698          37.000  
R16  19082025.287   101932699.737        1151.388          43.000  
R15  20608260.077   110124241.048       -2950.333          46.000  
J 1  37992822.977   199653631.765         -64.697          41.000  
J 2  36203656.637   190251494.383        -518.260          44.000  
R 5  20637400.796   110318709.171       -2176.215          49.000  
R 9  22508648.380   120194863.752        3823.745          41.000  
G12  24942359.348                        2409.345          13.000  
R21  21507565.747                       -3455.579          24.000  
R 7  22413416.147                        2066.051          20.000  
R 6  19466000.552   103874077.044         616.908          32.000  
R22  22065124.385                        -116.310          25.000  
> 2019 10  9  7 18 11.9970000  0 16                     
G 5  21747042.631   114281463.587       -3166.115          49.000  
G13  21029464.811   110510581.234       -2686.380          46.000  
G15  19681382.093   103426362.610        -880.158          50.000  
G24  20119337.136   105727833.663        1723.647          46.000  
G28  23823248.772   125192036.753        -929.695          36.000  
R16  19081809.777   101931548.620        1150.690          43.000  
R15  20608811.870   110127191.664       -2951.094          46.000  
J 1  37992835.436   199653696.278         -64.648          40.000  
J 2  36203755.108   190252012.653        -518.404          44.000  
R 5  20637807.979   110320885.396       -2176.408          49.000  
R 9  22507932.694   120191039.656        3824.239          41.000  
G12  24941898.418                        2409.345          11.000  
R21  21508210.672                       -3456.717          24.000  
R 7  22413032.539                        2059.849          21.000  
R 6  19465889.831   103873460.123         616.565          33.000  
R22  22065145.657                        -119.373          25.000  
> 2019 10  9  7 18 12.9970000  0 16                     
G 5  21747645.083   114284629.614       -3166.232          49.000  
G13  21029976.050   110513267.547       -2686.478          46.000  
G15  19681549.807   103427242.722        -880.373          50.000  
G24  20119008.915   105726110.097        1723.228          46.000  
G28  23823425.718   125192966.671        -930.342          36.000  
R16  19081594.354   101930398.250        1149.996          43.000  
R15  20609363.943   110130142.911       -2951.766          46.000  
J 1  37992847.983   199653760.634         -64.465          40.000  
J 2  36203853.754   190252530.904        -518.248          44.000  
R 5  20638215.424   110323061.757       -2176.531          49.000  
R 9  22507216.537   120187215.570        3823.907          41.000  
G12  24941438.553                        2409.345          12.000  
R21  21508854.759                       -3457.040          24.000  
R 7  22412649.960                        2062.502          22.000  
R 6  19465774.956   103872843.289         616.906          32.000  
R22  22065167.662                        -118.007          25.000  
> 2019 10  9  7 18 13.9970000  0 15                     
G 5  21748247.935   114287795.893       -3166.441          49.000  
G13  21030487.115   110515953.939       -2686.553          46.000  
G15  19681717.399   103428123.075        -880.574          50.000  
G24  20118680.850   105724387.011        1722.682          46.000  
G28  23823602.541   125193897.054        -930.731          36.000  
R16  19081379.350   101929248.697        1148.951          43.000  
R15  20609916.260   110133094.827       -2952.312          46.000  
J 1  37992859.989   199653824.877         -64.252          40.000  
J 2  36203952.331   190253049.209        -518.456          44.000  
R 5  20638622.398   110325238.314       -2176.607          49.000  
R 9  22506500.468   120183391.485        3823.529          41.000  
R21  21509500.173                       -3459.320          24.000  
R 7  22412269.406                        2058.688          22.000  
R 6  19465661.111   103872226.630         616.331          33.000  
R22  22065191.987                        -118.113          25.000  
> 2019 10  9  7 18 14.9970000  0 15                     
G 5  21748850.753   114290962.487       -3166.708          49.000  
G13  21030998.284   110518640.477       -2686.613          46.000  
G15  19681885.183   103429003.724        -880.744          50.000  
G24  20118353.048   105722664.433        1722.297          46.000  
G28  23823779.678   125194827.963        -931.549          36.000  
R16  19081164.259   101928099.982        1148.186          44.000  
R15  20610468.489   110136047.477       -2952.887          46.000  
J 1  37992872.274   199653889.077         -64.478          40.000  
J 2  36204051.047   190253567.597        -518.335          44.000  
R 5  20639029.721   110327415.138       -2176.986          49.000  
R 9  22505784.590   120179567.482        3823.825          41.000  
R21  21510144.645                       -3457.649          23.000  
R 7  22411887.613                        2057.344          22.000  
R 6  19465545.136   103871610.133         616.350          33.000  
R22  22065214.254                        -120.171          25.000  
> 2019 10  9  7 18 15.9970000  0 15                     
G 5  21749453.501   114294129.320       -3166.847          49.000  
G13  21031509.244   110521327.082       -2686.495          46.000  
G15  19682052.915   103429884.595        -880.909          50.000  
G24  20118025.350   105720942.321        1721.996          46.000  
G28  23823956.605   125195759.285        -931.347          36.000  
R16  19080949.412   101926952.046        1147.654          43.000  
R15  20611021.330   110139000.802       -2953.575          46.000  
J 1  37992884.419   199653953.132         -63.983          40.000  
J 2  36204149.797   190254086.027        -518.316          44.000  
R 5  20639437.166   110329592.134       -2177.072          49.000  
R 9  22505068.066   120175743.468        3824.102          40.000  
R21  21510791.699                       -3457.204          24.000  
R 7  22411508.280                        2056.694          23.000  
R 6  19465428.691   103870993.794         616.520          33.000  
R22  22065239.155                        -120.847          24.000  
> 2019 10  9  7 18 16.9970000  0 15                     
G 5  21750056.441   114297296.579       -3167.658          50.000  
G13  21032020.727   110524013.952       -2687.189          46.000  
G15  19682220.698   103430765.873        -881.619          50.000  
G24  20117697.496   105719220.857        1720.981          46.000  
G28  23824133.708   125196691.265        -932.252          36.000  
R16  19080734.425   101925805.068        1146.491          43.000  
R15  20611573.961   110141954.963       -2954.870          46.000  
J 1  37992896.809   199654017.257         -64.447          40.000  
J 2  36204248.339   190254604.679        -518.929          44.000  
R 5  20639844.350   110331769.495       -2177.608          49.000  
R 9  22504352.014   120171919.627        3823.699          40.000  
R21  21511436.763                       -3458.944          24.000  
R 7  22411126.801                        2061.633          24.000  
R 6  19465312.350   103870377.775         615.653          33.000  
R22  22065265.453                        -121.985          24.000  
> 2019 10  9  7 18 17.9970000  0 15                     
G 5  21750659.329   114300463.565       -3167.077          50.000  
G13  21032531.914   110526700.364       -2686.255          46.000  
G15  19682388.639   103431646.860        -881.070          50.000  
G24  20117369.589   105717499.323        1721.449          46.000  
G28  23824310.880   125197623.190        -932.178          36.000  
R16  19080519.421   101924658.352        1146.247          43.000  
R15  20612126.958   110144909.283       -2954.651          46.000  
J 1  37992908.780   199654080.752         -63.513          40.000  
J 2  36204347.194   190255122.836        -518.091          44.000  
R 5  20640251.551   110333946.494       -2177.029          49.000  
R 9  22503635.962   120168095.264        3824.471          40.000  
R21  21512085.091                       -3459.539          25.000  
R 7  22410741.587                        2062.667          23.000  
R 6  19465196.865   103869761.405         616.060          33.000  
R22  22065289.412                        -121.792          24.000  
> 2019 10  9  7 18 18.9970000  0 15                     
G 5  21751262.251   114303630.887       -3168.025          50.000  
G13  21033043.118   110529386.953       -2687.213          46.000  
G15  19682556.615   103432528.158        -881.952          51.000  
G24  20117042.066   105715778.369        1720.046          46.000  
G28  23824488.087   125198555.626        -933.173          36.000  
R16  19080304.469   101923512.513        1144.730          43.000  
R15  20612679.763   110147864.413       -2956.002          46.000  
J 1  37992920.890   199654144.219         -64.185          40.000  
J 2  36204446.207   190255641.120        -518.967          44.000  
R 5  20640658.873   110336123.751       -2178.031          49.000  
R 9  22502919.892   120164271.018        3823.472          40.000  
R21  21512733.157                       -3458.202          26.000  
R 7  22410355.100                        2058.902          24.000  
R 6  19465081.449   103869145.198         615.357          33.000  
R22  22065314.052                        -123.701          23.000  
> 2019 10  9  7 18 19.9970000  0 14                     
G 5  21751865.069   114306799.376       -3168.708          50.000  
G13  21033554.357   110532074.520       -2687.840          46.000  
G15  19682724.765   103433410.595        -882.727          51.000  
G24  20116714.822   105714058.768        1719.288          46.000  
G28  23824665.835   125199489.444        -934.011          36.000  
R16  19080090.250   101922368.402        1143.769          43.000  
R15  20613233.145   110150821.172       -2957.169          46.000  
J 1  37992933.158   199654208.474         -64.288          40.000  
J 2  36204544.783   190256160.362        -519.543          44.000  
R 5  20641066.319   110338302.138       -2178.620          49.000  
R 9  22502203.770   120160447.691        3822.978          40.000  
R21  21513382.742   115122414.3603      -3460.888          26.000  
R 7  22409970.340                        2050.949          24.000  
R 6  19464966.121   103868530.041         615.370          33.000  
> 2019 10  9  7 18 20.9970000  0 14                     
G 5  21752468.113   114309968.361       -3169.144          50.000  
G13  21034065.683   110534762.420       -2687.994          46.000  
G15  19682892.794   103434293.511        -883.088          51.000  
G24  20116387.648   105712339.875        1718.668          46.000  
G28  23824843.949   125200423.973        -934.642          36.000  
R16  19079875.892   101921225.351        1142.679          43.000  
R15  20613786.683   110153778.836       -2957.844          46.000  
J 1  37992945.408   199654272.857         -64.404          40.000  
J 2  36204643.743   190256679.872        -519.598          44.000  
R 5  20641474.200   110340480.975       -2178.986          49.000  
R 9  22501487.317   120156624.614        3823.040          40.000  
R21  21514030.913   115125897.7173      -3461.344          26.000  
R 7  22409585.161                        2057.416          23.000  
R 6  19464850.845   103867915.376         614.061          34.000  
> 2019 10  9  7 18 21.9970000  0 14                     
G 5  21753071.542   114313137.647       -3169.530          50.000  
G13  21034577.219   110537450.436       -2688.046          46.000  
G15  19683061.014   103435176.705        -883.449          51.000  
G24  20116060.735   105710621.469        1718.191          46.000  
G28  23825021.924   125201359.030        -936.034          36.000  
R16  19079661.987   101920083.128        1141.877          43.000  
R15  20614340.169   110156737.201       -2958.823          46.000  
J 1  37992957.588   199654337.185         -64.435          40.000  
J 2  36204742.825   190257199.473        -519.683          44.000  
R 5  20641882.151   110342660.040       -2179.260          49.000  
R 9  22500771.038   120152801.574        3823.011          40.000  
R21  21514677.705   115129359.6222      -3462.477          27.000  
R 7  22409195.568                        2066.270          22.000  
R 6  19464735.865   103867300.804         614.255          34.000  
> 2019 10  9  7 18 22.9970000  0 14                     
G 5  21753674.744   114316307.187       -3169.732          50.000  
G13  21035088.615   110540138.539       -2688.290          46.000  
G15  19683229.042   103436060.133        -883.719          51.000  
G24  20115733.875   105708903.550        1717.550          46.000  
G28  23825199.933   125202294.502        -935.948          36.000  
R16  19079448.448   101918941.690        1140.901          43.000  
R15  20614893.934   110159696.250       -2959.584          46.000  
J 1  37992969.541   199654401.400         -64.276          40.000  
J 2  36204841.419   190257719.113        -519.660          44.000  
R 5  20642289.928   110344839.282       -2179.439          49.000  
R 9  22500054.619   120148978.602        3822.593          40.000  
R21  21515325.963   115132821.3951      -3462.725          28.000  
R 7  22408809.394                        2060.386          22.000  
R 6  19464620.851   103866686.378         614.448          34.000  
> 2019 10  9  7 18 23.9970000  0 14                     
G 5  21754277.963   114319476.971       -3169.882          50.000  
G13  21035600.290   110542826.724       -2688.282          46.000  
G15  19683397.070   103436943.789        -883.839          51.000  
G24  20115407.067   105707186.119        1717.129          46.000  
G28  23825378.100   125203230.435        -935.842          36.000  
R16  19079235.120   101917801.022        1140.215          44.000  
R15  20615447.752   110162655.991       -2960.044          46.000  
J 1  37992981.652   199654465.495         -64.124          40.000  
J 2  36204940.502   190258238.795        -519.658          44.000  
R 5  20642697.548   110347018.697       -2179.535          49.000  
R 9  22499337.938   120145155.577        3823.084          40.000  
R21  21515976.350   115136284.092       -3462.954          29.000  
R 7  22408422.279                        2060.282          21.000  
R 6  19464506.081   103866072.100         613.954          34.000  
> 2019 10  9  7 18 24.9970000  0 14                     
G 5  21754881.287   114322647.102       -3170.419          50.000  
G13  21036111.791   110545515.065       -2688.675          46.000  
G15  19683565.238   103437827.763        -884.151          51.000  
G24  20115080.452   105705469.225        1716.457          46.000  
G28  23825556.407   125204166.915        -936.692          36.000  
R16  19079021.686   101916661.238        1139.341          44.000  
R15  20616001.657   110165616.499       -2960.951          46.000  
J 1  37992993.710   199654529.559         -64.130          40.000  
J 2  36205039.183   190258758.606        -519.984          44.000  
R 5  20643105.673   110349198.389       -2179.869          49.000  
R 9  22498621.729   120141332.667        3822.256          41.000  
R21  21516626.074   115139747.287       -3462.430          29.000  
R 7  22408032.650                        2063.720          20.000  
R 6  19464391.101   103865458.037         613.346          35.000  
> 2019 10  9  7 18 25.9970000  0 14                     
G 5  21755484.698   114325817.572       -3170.607          50.000  
G13  21036623.414   110548203.576       -2688.494          46.000  
G15  19683733.405   103438712.056        -884.388          50.000  
G24  20114754.028   105703752.882        1716.109          46.000  
G28  23825735.010   125205103.966        -937.549          36.000  
R16  19078808.671   101915522.358        1138.522          44.000  
R15  20616555.631   110168577.777       -2961.743          46.000  
J 1  37993006.117   199654593.606         -64.117          40.000  
J 2  36205138.247   190259278.544        -520.060          44.000  
R 5  20643513.799   110351378.376       -2180.043          49.000  
R 9  22497905.049   120137509.838        3822.732          41.000  
R21  21517275.711   115143211.099       -3464.421          31.000  
R 7  22407646.774                        2055.622          20.000  
R 6  19464276.226   103864844.208         613.654          35.000  
> 2019 10  9  7 18 26.9970000  0 14                     
G 5  21756088.109   114328988.257       -3170.753          50.000  
G13  21037135.124   110550892.131       -2688.458          46.000  
G15  19683901.538   103439596.541        -884.484          50.000  
G24  20114427.447   105702036.982        1715.683          46.000  
G28  23825913.613   125206041.422        -937.735          37.000  
R16  19078595.848   101914384.227        1137.802          44.000  
R15  20617109.536   110171539.662       -2961.948          46.000  
J 1  37993018.315   199654657.492         -63.593          40.000  
J 2  36205237.260   190259798.488        -520.074          44.000  
R 5  20643922.047   110353558.507       -2180.145          49.000  
R 9  22497188.752   120133687.004        3822.913          41.000  
R21  21517925.906   115146675.244       -3464.477          32.000  
R 7  22407261.386                        2051.196          21.000  
R 6  19464161.421   103864230.497         613.505          34.000  
> 2019 10  9  7 18 27.9970000  0 14                     
G 5  21756691.345   114332158.773       -3170.538          50.000  
G13  21037646.730   110553580.340       -2688.099          46.000  
G15  19684069.706   103440480.843        -884.315          50.000  
G24  20114101.128   105700321.111        1715.676          46.000  
G28  23826091.797   125206978.881        -937.389          37.000  
R16  19078382.868   101913246.422        1137.708          44.000  
R15  20617663.860   110174501.810       -2962.376          46.000  
J 1  37993030.285   199654720.852         -63.226          40.000  
J 2  36205336.447   190260318.035        -519.383          44.000  
R 5  20644330.556   110355738.375       -2179.810          49.000  
R 9  22496472.019   120129863.770        3823.507          41.000  
R21  21518574.653   115150139.320       -3464.349          32.000  
R 7  22406876.224                        2061.878          22.000  
R 6  19464045.988   103863616.484         614.324          34.000  
> 2019 10  9  7 18 28.9970000  0 14                     
G 5  21757294.338   114335329.378       -3171.299          50.000  
G13  21038158.318   110556268.468       -2688.580          46.000  
G15  19684237.752   103441365.208        -885.024          50.000  
G24  20113774.547   105698605.545        1714.816          46.000  
G28  23826270.173   125207916.673        -938.122          37.000  
R16  19078170.098   101912109.227        1136.382          44.000  
R15  20618218.114   110177464.475       -2963.390          46.000  
J 1  37993042.361   199654783.933         -63.409          40.000  
J 2  36205435.285   190260837.473        -519.977          44.000  
R 5  20644738.612   110357918.251       -2180.370          49.000  
R 9  22495755.775   120126040.344        3823.029          41.000  
R21  21519218.060   115153603.702       -3464.364          32.000  
R 7  22406489.911                        2072.936          23.000  
R 6  19463930.852   103863002.476         613.307          34.000  
> 2019 10  9  7 18 29.9970000  0 14                     
G 5  21757897.993   114338501.081       -3172.271          50.000  
G13  21038670.115   110558957.524       -2689.506          46.000  
G15  19684406.076   103442250.656        -885.915          50.000  
G24  20113448.193   105696891.283        1713.630          46.000  
G28  23826448.706   125208855.791        -939.789          37.000  
R16  19077957.450   101910973.709        1134.669          44.000  
R15  20618772.978   110180428.714       -2964.796          46.000  
J 1  37993054.402   199654847.752         -64.044          40.000  
J 2  36205534.490   190261357.792        -520.587          44.000  
R 5  20645146.598   110360099.164       -2181.366          49.000  
R 9  22495039.095   120122217.787        3822.239          41.000  
